,Latitude,Longitude,Region,Council,Ward,SchoolName,Ownership
0,-3.3620171,36.6856885,Arusha,Arusha,Kiranyi,Albehije,Non-Government
1,-3.3579834,36.6780255,Arusha,Arusha,Kiranyi,Arusha Victory,Non-Government
2,-3.385133,36.5491474,Arusha,Arusha,Mateves,Assalaf,Non-Government
3,-3.3403253,36.7431434,Arusha,Arusha,Bangata,Bangata,Government
4,-3.3639833,36.5626783,Arusha,Arusha,Mateves,Bethany,Non-Government
5,-3.36329,36.60316,Arusha,Arusha,Olorien,Blue Bell,Non-Government
6,-3.6076467,36.8447191,Arusha,Arusha,Bwawani,Bwawani,Government
7,-3.3773035,36.5862759,Arusha,Arusha,Mateves,Deanery,Non-Government
8,-3.4506519,36.7924085,Arusha,Arusha,Mlangarini,Dinka,Non-Government
9,-3.9392741,36.360456,Arusha,Arusha,Sokon II,Ebenezer,Non-Government
10,-3.2983403,36.6267205,Arusha,Arusha,Olturumet,Ekenywa,Government
11,-3.310745,36.645403,Arusha,Arusha,Olmotonyi,Ekica,Non-Government
12,-3.3080883,36.6489966,Arusha,Arusha,Olmotonyi,Emaoi,Government
13,-3.3227865,36.6515627,Arusha,Arusha,Tarakwa,Endoinyoesoye,Government
14,-3.2379416,36.5442366,Arusha,Arusha,Mwandet,Engalaoni,Government
15,-3.3722475,36.7538238,Arusha,Arusha,Bangata,Engikareti,Government
16,-3.3472802,36.6992602,Arusha,Arusha,Moivo,Engilang'Et,Non-Government
17,-3.2327941,36.6422835,Arusha,Arusha,Lemanyata,Engorika,Government
18,-3.0463618,36.7477283,Arusha,Arusha,Oldonyowass,Engutukoit,Government
19,-3.4320129,36.6517247,Arusha,Arusha,Laroi,Enjoro,Government
20,-3.3618709,36.6685859,Arusha,Arusha,Kiranyi,Enyuata,Government
21,-3.3373669,36.5598478,Arusha,Arusha,Musa,Eunoto,Government
22,-3.3551844,36.6921826,Arusha,Arusha,Moivo,Goodwill,Non-Government
23,-3.3475766,36.6696166,Arusha,Arusha,Kiranyi,Gracious,Non-Government
24,-3.3624253,36.7056632,Arusha,Arusha,Kiutu,Green Acres,Non-Government
25,-3.346742,36.7242141,Arusha,Arusha,Kiutu,Green Pastures,Non-Government
26,-3.4711334,36.6567329,Arusha,Arusha,Laroi,Heda,Non-Government
27,-3.3394526,36.7407011,Arusha,Arusha,Bangata,Ikirwa,Non-Government
28,-3.3641707,36.7056296,Arusha,Arusha,Ilboru,Ilboru,Government
29,-3.3497765,36.6864527,Arusha,Arusha,Ilboru,Ilboru Lutheran,Non-Government
30,-3.3567017,36.5261733,Arusha,Arusha,Kisongo,Ilkerin,Government
31,-3.3178416,36.6848933,Arusha,Arusha,Ilkiding'a,Ilkiding'A,Government
32,-3.317492,36.965646,Arusha,Arusha,Ilkiding'a,Ilkisongo,Government
33,-3.356937,36.676662,Arusha,Arusha,Kiranyi,Ilkiurei,Government
34,-3.3622783,36.7075383,Arusha,Arusha,Olmotonyi,Ilkonere,Government
35,-3.2264657,36.6184642,Arusha,Arusha,Olkokola,Ilkurot,Government
36,-3.2489526,36.5856477,Arusha,Arusha,Mwandet,Imbibia,Government
37,-3.3179444,36.6455555,Arusha,Arusha,Kimnyaki,Islong,Non-Government
38,-3.3431873,36.6461204,Arusha,Arusha,Olorien,J.K. Nyerere,Government
39,-3.3437167,36.6811666,Arusha,Arusha,Olturoto,Jobreas,Non-Government
40,-3.1876998,36.6591451,Arusha,Arusha,Oldonyosambu,Joshua Vision,Non-Government
41,-3.3732665,36.5763576,Arusha,Arusha,Mateves,Kambi Ya Maziwa,Government
42,-3.5372021,36.7805231,Arusha,Arusha,Bwawani,Kigongoni,Government
43,-3.3501163,36.6522587,Arusha,Arusha,Olorien,Kilimanjaro,Non-Government
44,-3.3154126,36.6547614,Arusha,Arusha,Kimnyaki,Kimnyaki,Government
45,-3.3604433,36.6778,Arusha,Arusha,Kiranyi,Kingdom,Non-Government
46,-3.3641707,36.7056296,Arusha,Arusha,Ilkiding'a,Kioga,Government
47,-3.3587783,36.6683699,Arusha,Arusha,Kiranyi,Kiranyi,Government
48,-3.4368069,36.7069836,Arusha,Arusha,Mlangarini,Kiserian,Government
49,-3.369725,36.547065,Arusha,Arusha,Kisongo,Kisongo,Government
50,-3.580214,36.833073,Arusha,Arusha,Bwawani,Lamoloki,Government
51,-3.4958783,36.6267749,Arusha,Arusha,Laroi,Laroi,Government
52,-3.26372,36.61808,Arusha,Arusha,Lemanyata,Lemanyata,Government
53,-3.1982275,36.6338513,Arusha,Arusha,Oldonyosambu,Leminyor,Government
54,-3.4318583,36.5611199,Arusha,Arusha,Mateves,Lemugur,Government
55,-3.2224733,36.6038033,Arusha,Arusha,Olkokola,Lengijave,Government
56,-3.3975833,36.5051016,Arusha,Arusha,Kisongo,Lesiraa,Government
57,-3.3373668,36.559877,Arusha,Arusha,Musa,Likamba,Government
58,-3.3373667,36.5598467,Arusha,Arusha,Musa,Likamba Integrity,Non-Government
59,-3.4087917,36.5432633,Arusha,Arusha,Kisongo,Loovilukunyi,Government
60,-3.3470433,36.7034833,Arusha,Arusha,Olturoto,Loruvan,Government
61,-3.5391888,36.6506438,Arusha,Arusha,Mwandet,Losikito,Government
62,-3.0473625,36.6981183,Arusha,Arusha,Oldonyowass,Losinoni,Government
63,-3.3833644,36.5864353,Arusha,Arusha,Mateves,Maadili,Non-Government
64,-3.2686734,36.6327869,Arusha,Arusha,Olturumet,Maasay Joy,Non-Government
65,-3.3022721,36.6375616,Arusha,Arusha,Olturumet,Magreth England Bark,Non-Government
66,-3.3539155,36.0075363,Arusha,Arusha,Nduruma,Maji Moto,Government
67,-3.4546016,36.8054433,Arusha,Arusha,Mlangarini,Manyire,Government
68,-3.4798152,36.8440208,Arusha,Arusha,Nduruma,Marurani,Government
69,-3.1548698,36.3745156,Arusha,Arusha,Lemanyata,Matim,Government
70,-3.5632833,36.6561466,Arusha,Arusha,Oljoro,Mbuyuni,Government
71,-3.3500632,36.3739811,Arusha,Arusha,Ilboru,Miale,Non-Government
72,-3.3684617,36.7531625,Arusha,Arusha,Bangata,Midawe,Government
73,-3.5679519,36.6531133,Arusha,Arusha,Oljoro,Mirongoine,Government
74,-3.4507334,36.7924392,Arusha,Arusha,Mlangarini,Mlangarini,Government
75,-3.3470433,36.7034833,Arusha,Arusha,Moivo,Moivo,Government
76,-3.3540036,36.6156082,Arusha,Arusha,Olorien,Mringa,Government
77,-3.4798152,36.8440208,Arusha,Arusha,Nduruma,Mshikamano,Government
78,-3.5292372,36.833401,Arusha,Arusha,Bwawani,Mungushi,Government
79,-3.3224154,36.5205957,Arusha,Arusha,Musa,Musa,Government
80,-3.482045,36.7362017,Arusha,Arusha,Mlangarini,Muungano,Government
81,-3.5391888,36.6506438,Arusha,Arusha,Mwandet,Mwandeti,Government
82,-3.5046799,36.8059825,Arusha,Arusha,Nduruma,Mzimuni,Government
83,-3.3641707,36.7056296,Arusha,Arusha,Sokon II,Nambere,Government
84,-3.1347033,36.7460733,Arusha,Arusha,Oldonyowass,Namelok,Government
85,-3.3399363,36.6999421,Arusha,Arusha,Kiranyi,Natema,Government
86,-3.3516817,36.7147611,Arusha,Arusha,Kiutu,Naurei,Government
87,-3.4749033,36.7937083,Arusha,Arusha,Nduruma,Nduruma,Government
88,-3.3438383,36.4704983,Arusha,Arusha,Musa,Nengungu,Government
89,-3.3436141,36.6469212,Arusha,Arusha,Olorien,New Life,Non-Government
90,-3.3408047,36.6264302,Arusha,Arusha,Olturumet,New Vision,Non-Government
91,-3.31586514,36.6382362,Arusha,Arusha,Olturumet,Ngaramtoni,Government
92,-3.3322759,36.7329216,Arusha,Arusha,Sokon II,Ng'Iresi,Government
93,-3.3500612,36.3739801,Arusha,Arusha,Ilboru,Nuru,Non-Government
94,-3.2233833,36.6046456,Arusha,Arusha,Olkokola,Olbak,Government
95,-3.351912,36.6669001,Arusha,Arusha,Kiranyi,Olchoki,Government
96,-3.2981716,36.5276916,Arusha,Arusha,Musa,Olchorovus,Government
97,-3.363306,36.734878,Arusha,Arusha,Sokon II,Oldadai,Government
98,-3.7448033,36.7637083,Arusha,Arusha,Nduruma,Oldendereti,Government
99,-3.1540333,36.6776233,Arusha,Arusha,Oldonyosambu,Oldonyosambu,Government
100,-3.3119375,36.6311844,Arusha,Arusha,Olturoto,Oldonyosapuk,Government
101,-3.1548304,36.6864811,Arusha,Arusha,Oldonyowass,Oldonyowas,Government
102,-3.5189833,36.6075883,Arusha,Arusha,Laroi,Olemedeye,Government
103,-3.3423317,36.7228777,Arusha,Arusha,Kiutu,Olgilai,Government
104,-3.5809598,36.6780255,Arusha,Arusha,Oljoro,Oljoro,Government
105,-3.2317394,36.6112483,Arusha,Arusha,Lemanyata,Olkokola,Government
106,-3.2910419,36.6493041,Arusha,Arusha,Olmotonyi,Olmotonyi,Government
107,-3.3046096,36.6716773,Arusha,Arusha,Kimnyaki,Olmringiringa,Government
108,-3.3222531,36.6331767,Arusha,Arusha,Olorien,Oloirien Valley,Non-Government
109,-3.5046699,36.8059715,Arusha,Arusha,Bwawani,Olokii,Government
110,-3.4079187,36.7623152,Arusha,Arusha,Mlangarini,Olomitu,Government
111,-3.3451606,36.6477138,Arusha,Arusha,Olorien,Olosiva,Government
112,-3.3647191,36.6093081,Arusha,Arusha,Olturumet,Olturmet,Government
113,-3.33370166,36.6891666,Arusha,Arusha,Olturoto,Olturoto,Government
114,-3.389213,36.543736,Arusha,Arusha,Kisongo,Pelican,Non-Government
115,-3.3125455,36.64241,Arusha,Arusha,Olmotonyi,Rockland,Non-Government
116,-3.662546,36.6234615,Arusha,Arusha,Olmotonyi,Saide,Non-Government
117,-3.2965333,36.6700454,Arusha,Arusha,Sambasha,Sambasha,Government
118,-3.5838,36.7864,Arusha,Arusha,Nduruma,Sammena,Non-Government
119,-3.4029702,36.6994847,Arusha,Arusha,Laroi,Samwa,Non-Government
120,-3.3656505,36.7619751,Arusha,Arusha,Bangata,Sasi,Government
121,-3.3634156,36.7667873,Arusha,Arusha,Kisongo,Seia Ebenezer,Non-Government
122,-3.3574107,36.7166343,Arusha,Arusha,Kiutu,Sekei,Government
123,-3.3159938,36.6504252,Arusha,Arusha,Kimnyaki,Selian,Government
124,-3.3605,36.6971,Arusha,Arusha,Moivo,Shinning Star,Non-Government
125,-3.5354545,36.6442353,Arusha,Arusha,Oljoro,Sitti Mwinyi,Government
126,-3.5967621,36.6996712,Arusha,Arusha,Bwawani,Songambele,Government
127,-3.3082129,36.6378041,Arusha,Arusha,Olturumet,Sos Herman,Non-Government
128,-3.38768,36.7388631,Arusha,Arusha,Moivo,Sotwa Wilson,Non-Government
129,-3.7417673,36.4787644,Arusha,Arusha,Kiranyi,St. Augustine,Non-Government
130,-3.3717041,36.5805175,Arusha,Arusha,Kisongo,St. Margreth,Non-Government
131,-3.3554453,36.6781483,Arusha,Arusha,Kiranyi,St. Pius,Non-Government
132,-3.179993,36.649904,Arusha,Arusha,Kiutu,St.Paul,Non-Government
133,-3.5967623,36.6996714,Arusha,Arusha,Bwawani,Themi Ya Simba,Government
134,-3.2980756,36.6700733,Arusha,Arusha,Sambasha,Timbolo,Government
135,-3.3541965,36.6522091,Arusha,Arusha,Olorien,Trust St. Patrick,Non-Government
136,-3.7349033,36.7737083,Arusha,Arusha,Nduruma,Umoja,Government
137,-3.357785,36.7179266,Arusha,Arusha,Sokon II,Wilkabaa,Non-Government
138,-3.5563652,36.6400394,Arusha,Arusha,Oljoro,Winners,Non-Government
139,-3.3874027,36.5539942,Arusha,Arusha,Kisongo,Yakini,Non-Government
140,-3.3852664,36.6709666,Arusha,Arusha CC,Sombetini,Angelico Lipan,Non-Government
141,-3.4179135,36.66439,Arusha,Arusha CC,Olasiti,Arusha Alliance,Non-Government
142,-3.3634187,36.6580771,Arusha,Arusha CC,Elerai,Arusha Integrated,Non-Government
143,-3.375285,36.683857,Arusha,Arusha CC,Levolosi,Arusha Meru Int.School,Non-Government
144,-3.3605817,36.6609211,Arusha,Arusha CC,Elerai,Arusha Modern,Non-Government
145,-3.3760433,36.6941067,Arusha,Arusha CC,Themi,Arusha School,Government
146,-3.3841364,36.7071053,Arusha,Arusha CC,Oloirien,Assumption,Non-Government
147,-3.3641475,36.6622336,Arusha,Arusha CC,Elerai,Azimio,Government
148,-3.3887066,36.737565,Arusha,Arusha CC,Baraa,Baraa,Government
149,-3.3995088,36.6700833,Arusha,Arusha CC,Sokoni I,Barbra School,Non-Government
150,-3.3883282,36.710052,Arusha,Arusha CC,Oloirien,Bible Baptist,Non-Government
151,-3.376211,36.729585,Arusha,Arusha CC,Baraa,Bright Future,Non-Government
152,-3.3648532,36.6614862,Arusha,Arusha CC,Elerai,Burka,Government
153,-3.412956,36.63888,Arusha,Arusha CC,Olasiti,Burka Estate,Government
154,-3.4052699,36.6662027,Arusha,Arusha CC,Sinoni,Camp Joshua,Non-Government
155,-3.3777067,36.6523993,Arusha,Arusha CC,Olmoti,Canaan,Non-Government
156,-3.4572736,36.7102387,Arusha,Arusha CC,Baraa,Canossa,Non-Government
157,-3.3657887,36.674446,Arusha,Arusha CC,Olasiti,Carmel,Non-Government
158,-3.4724237,36.6684748,Arusha,Arusha CC,Muriet,Cheti,Non-Government
159,-3.3869259,36.6829952,Arusha,Arusha CC,Sokoni I,Classic,Non-Government
160,-3.386763,36.694123,Arusha,Arusha CC,Daraja Ii,Daraja Mbili,Government
161,-3.4190654,36.6615265,Arusha,Arusha CC,Sokoni I,Dominion,Non-Government
162,-3.3729361,36.6567847,Arusha,Arusha CC,Elerai,Elerai,Government
163,-3.3881652,36.7319431,Arusha,Arusha CC,Baraa,Elyon,Non-Government
164,-3.3885302,36.6963438,Arusha,Arusha CC,Daraja Ii,Enalepo,Non-Government
165,-3.361385,36.6712933,Arusha,Arusha CC,Ngarenaro,Engarenarok Luth. Tetra,Non-Government
166,-3.3940816,36.6975333,Arusha,Arusha CC,Themi,Engira,Government
167,-3.416155,36.6879112,Arusha,Arusha CC,Sinoni,Engosengiu,Government
168,-3.3915846,36.738533,Arusha,Arusha CC,Muriet,Enyorata,Non-Government
169,-3.3698883,36.719115,Arusha,Arusha CC,Kimandolu,Ereto,Non-Government
170,-3.36332,36.70027,Arusha,Arusha CC,Sekei,Ernest Meyner,Non-Government
171,-3.401541,36.6751321,Arusha,Arusha CC,Sokoni I,Esa,Non-Government
172,-3.4230233,36.6613913,Arusha,Arusha CC,Muriet,Eserian,Non-Government
173,-3.4076327,36.6829956,Arusha,Arusha CC,Sinoni,Ghati Memorial,Non-Government
174,-3.3957777,36.6736666,Arusha,Arusha CC,Sokoni I,Glorious School,Non-Government
175,-3.3871483,36.7328517,Arusha,Arusha CC,Baraa,Gloryland,Non-Government
176,-3.4064473,36.6675744,Arusha,Arusha CC,Sokoni I,Golgotha,Non-Government
177,-3.3999933,36.6678908,Arusha,Arusha CC,Sombetini,Good Hope,Non-Government
178,-3.4557663,36.6526501,Arusha,Arusha CC,Muriet,Gosheni Blessed,Non-Government
179,-3.3893041,36.6643634,Arusha,Arusha CC,Sombetini,Green Valley,Non-Government
180,-3.3646697,36.6715656,Arusha,Arusha CC,Sakina,Greenwhich,Non-Government
181,-3.3940461,36.6654966,Arusha,Arusha CC,Osunyai Jr,Hady,Non-Government
182,-3.425623,36.709255,Arusha,Arusha CC,Baraa,Hazina Mission,Non-Government
183,-3.4557768,36.6526512,Arusha,Arusha CC,Muriet,Healsun,Non-Government
184,-3.400161,36.740033,Arusha,Arusha CC,Moshono,Heaven,Non-Government
185,-3.4215342,36.6630579,Arusha,Arusha CC,Muriet,High Challenge,Non-Government
186,-3.3864312,36.6601566,Arusha,Arusha CC,Sombetini,High View,Non-Government
187,-3.3941999,36.7067188,Arusha,Arusha CC,Themi,Highridge,Non-Government
188,-3.399049,36.7383433,Arusha,Arusha CC,Moshono,Hope,Non-Government
189,-3.38554,36.668504,Arusha,Arusha CC,Osunyai Jr,Imani School,Non-Government
190,-3.4443374,36.7090329,Arusha,Arusha CC,Terrat,Integrity,Non-Government
191,-3.4575255,36.70095,Arusha,Arusha CC,Terrat,Intel Schools,Non-Government
192,-3.407183,36.721328,Arusha,Arusha CC,Muriet,Jitihada,Non-Government
193,-3.36221,36.65966,Arusha,Arusha CC,Elerai,Joseph School,Non-Government
194,-3.45472,36.7109652,Arusha,Arusha CC,Moshono,Joshua,Non-Government
195,-3.3673166,36.6897459,Arusha,Arusha CC,Kaloleni,Kaloleni,Government
196,-3.376673,36.7048666,Arusha,Arusha CC,Sekei,Kijenge,Government
197,-3.3683767,36.7045549,Arusha,Arusha CC,Kimandolu,Kimandolu,Government
198,-3.370864,36.71531,Arusha,Arusha CC,Kimandolu,Kimandolu Lutheran,Non-Government
199,-3.4316581,36.6732023,Arusha,Arusha CC,Muriet,King David,Non-Government
200,-3.4487133,36.672925,Arusha,Arusha CC,Muriet,Kisimani,Government
201,-3.3887586,36.716045,Arusha,Arusha CC,Kimandolu,Lady Of Mercy,Non-Government
202,-3.4033093,36.7002712,Arusha,Arusha CC,Lemara,Lemara,Government
203,-3.3674863,36.6813965,Arusha,Arusha CC,Levolosi,Levolosi,Government
204,-3.3656971,36.6738176,Arusha,Arusha CC,Ngarenaro,Lise,Non-Government
205,-3.3882633,36.7133133,Arusha,Arusha CC,Oloirien,Loamo,Non-Government
206,-3.5344623,36.6908775,Arusha,Arusha CC,Muriet,Losiyo,Government
207,-3.4101138,36.6554973,Arusha,Arusha CC,Olasiti,Lucky Vicent,Non-Government
208,-3.3500211,36.6263413,Arusha,Arusha CC,Muriet,Machwa,Non-Government
209,-3.3633511,36.6286782,Arusha,Arusha CC,Olmoti,Magereza,Government
210,-3.3693086,36.6588666,Arusha,Arusha CC,Elerai,Majengo,Non-Government
211,-3.3668437,36.6895808,Arusha,Arusha CC,Kaloleni,Makumbusho,Government
212,-3.3610516,36.680395,Arusha,Arusha CC,Levolosi,Maranatha Mission School,Non-Government
213,-3.3693832,36.676965,Arusha,Arusha CC,Ngarenaro,Maromboso,Non-Government
214,-3.388433,36.655963,Arusha,Arusha CC,Olasiti,Mary Immaculate Complex,Non-Government
215,-3.389619,36.622719,Arusha,Arusha CC,Olmoti,Mateves,Government
216,-3.40918,36.63854,Arusha,Arusha CC,Olasiti,Matonyok,Non-Government
217,-3.5105042,36.7146219,Arusha,Arusha CC,Terrat,Maweni,Government
218,-3.3986519,36.6574591,Arusha,Arusha CC,Olasiti,Mecsons,Non-Government
219,-3.3699479,36.6898233,Arusha,Arusha CC,Kati,Meru,Government
220,-3.376009,36.665363,Arusha,Arusha CC,Elerai,Michael School,Non-Government
221,-3.4739584,36.7050348,Arusha,Arusha CC,Terrat,Mkonoo,Government
222,-3.3845156,36.7113702,Arusha,Arusha CC,Oloirien,Moivoi,Government
223,-3.3908316,36.7306416,Arusha,Arusha CC,Moshono,Moshono,Government
224,-3.4410988,36.7130472,Arusha,Arusha CC,Engutoto,Mount Meru,Non-Government
225,-3.3818533,36.6041454,Arusha,Arusha CC,Olmoti,Mount Sinai,Non-Government
226,-3.4129023,36.657376,Arusha,Arusha CC,Muriet,Muriet,Non-Government
227,-3.4178509,36.6902056,Arusha,Arusha CC,Sokoni I,Muriet Darajani,Government
228,-3.4987193,36.6338192,Arusha,Arusha CC,Olmoti,Murongoine,Government
229,-3.374502,36.70066,Arusha,Arusha CC,Ngarenaro,Mwangaza,Government
230,-3.4958982,36.6811609,Arusha,Arusha CC,Muriet,Nadosoito,Government
231,-3.384808,36.67524,Arusha,Arusha CC,Sokoni I,Nakido,Non-Government
232,-3.447028,36.710923,Arusha,Arusha CC,Engutoto,Nalopa,Non-Government
233,-3.3705596,36.7328033,Arusha,Arusha CC,Baraa,Nariva Hill,Non-Government
234,-3.3626924,36.69574,Arusha,Arusha CC,Sekei,Naura,Government
235,-3.4137887,36.638446,Arusha,Arusha CC,Olasiti,Nejola,Non-Government
236,-3.4059949,36.652575,Arusha,Arusha CC,Olasiti,New Precious,Non-Government
237,-3.4243133,36.6866971,Arusha,Arusha CC,Sinoni,New Wisdom,Non-Government
238,-3.3735816,36.6773513,Arusha,Arusha CC,Ngarenaro,Ngarenaro,Government
239,-3.423265,36.707683,Arusha,Arusha CC,Engutoto,Njiro Hill,Government
240,-3.425423,36.702165,Arusha,Arusha CC,Lemara,Notre Dame,Non-Government
241,-3.4739583,36.7050349,Arusha,Arusha CC,Terrat,Nyahiri Memorial,Non-Government
242,-3.4137888,36.638447,Arusha,Arusha CC,Olasiti,Olasiti,Government
243,-3.4455956,36.7083595,Arusha,Arusha CC,Moshono,Olkereyan,Government
244,-3.3885404,36.7117286,Arusha,Arusha CC,Oloirien,Oloirien,Government
245,-3.39012,36.6677933,Arusha,Arusha CC,Osunyai Jr,Osunyai,Government
246,-3.4040983,36.6779233,Arusha,Arusha CC,Sokoni I,Parents,Non-Government
247,-3.407002,36.6603,Arusha,Arusha CC,Olasiti,Patmos Islands,Non-Government
248,-3.3310877,36.6120352,Arusha,Arusha CC,Engutoto,Peace,Non-Government
249,-3.3942766,36.6767066,Arusha,Arusha CC,Baraa,Pison,Non-Government
250,-3.382638,36.696001,Arusha,Arusha CC,Sekei,Prime,Non-Government
251,-3.4034393,36.6948795,Arusha,Arusha CC,Lemara,Renea,Non-Government
252,-3.3940732,36.6843222,Arusha,Arusha CC,Sinoni,Royal,Non-Government
253,-3.4052955,36.6686583,Arusha,Arusha CC,Sokoni I,Royal Vision,Non-Government
254,-3.3801921,36.674359,Arusha,Arusha CC,Unga Ltd,Salei,Government
255,-3.3627379,36.695889,Arusha,Arusha CC,Sekei,Sanawari,Government
256,-3.43765,36.70437,Arusha,Arusha CC,Lemara,Shalom,Non-Government
257,-3.401825,36.7592651,Arusha,Arusha CC,Moivaro,Shangarao,Government
258,-3.367207,36.721578,Arusha,Arusha CC,Moivaro,Shepherds Junior,Non-Government
259,-3.395134,36.67758,Arusha,Arusha CC,Sokoni I,Shinda Basic,Non-Government
260,-3.3938505,36.6820367,Arusha,Arusha CC,Sinoni,Sinon,Government
261,-3.4239797,36.6672372,Arusha,Arusha CC,Muriet,Sojema,Non-Government
262,-3.401735,36.6681033,Arusha,Arusha CC,Sokoni I,Sokoni I,Government
263,-3.3900111,36.6665666,Arusha,Arusha CC,Sombetini,Sombetini,Government
264,-3.3930458,36.7252308,Arusha,Arusha CC,Oloirien,St. Andrew'S School,Non-Government
265,-3.4246304,36.6617959,Arusha,Arusha CC,Muriet,St. Arnold Jansen,Non-Government
266,-3.3700612,36.6025201,Arusha,Arusha CC,Olmoti,St. Gemma Galgan,Non-Government
267,-3.4150928,36.7049892,Arusha,Arusha CC,Lemara,St. Maria Goretti,Non-Government
268,-3.4027233,36.742145,Arusha,Arusha CC,Moshono,St. Monica,Non-Government
269,-3.3920172,36.7400327,Arusha,Arusha CC,Moivaro,St.Jude,Non-Government
270,-3.368465,36.6648771,Arusha,Arusha CC,Elerai,St.Thadeus,Non-Government
271,-3.3771112,36.7376696,Arusha,Arusha CC,Moshono,St.Thomas,Non-Government
272,-3.3746393,36.7602326,Arusha,Arusha CC,Moivaro,Star Light,Non-Government
273,-3.3853076,36.7201073,Arusha,Arusha CC,Kimandolu,Suye,Government
274,-3.3655453,36.6750912,Arusha,Arusha CC,Ngarenaro,Swifts,Non-Government
275,-3.41558,36.70428,Arusha,Arusha CC,Lemara,Tanganyika,Non-Government
276,-3.3566666,36.71485,Arusha,Arusha CC,Sokoni I,Teresa Nuzzo,Non-Government
277,-3.4557769,36.6526513,Arusha,Arusha CC,Muriet,Terrat,Government
278,-3.3756211,36.7598955,Arusha,Arusha CC,Moshono,Testmony,Non-Government
279,-3.3807836,36.6891492,Arusha,Arusha CC,Themi,Themi,Government
280,-3.4196,36.7079,Arusha,Arusha CC,Engutoto,Tuishime,Non-Government
281,-3.67584,36.69908,Arusha,Arusha CC,Kati,Uhuru,Government
282,-3.3702688,36.7375,Arusha,Arusha CC,Baraa,Uhuru Peak,Non-Government
283,-3.3921756,36.6844638,Arusha,Arusha CC,Sinoni,Ukombozi,Government
284,-3.3796601,36.6744812,Arusha,Arusha CC,Unga Ltd,Unga Ltd,Government
285,-3.3686452,36.675275,Arusha,Arusha CC,Ngarenaro,Unity School,Non-Government
286,-3.3720349,36.5989967,Arusha,Arusha CC,Olmoti,Upendo Friends,Non-Government
287,-3.3869135,36.7273423,Arusha,Arusha CC,Moshono,Wema,Government
288,-3.335606,35.764059,Arusha,Karatu,Rhotia,African Galleria,Government
289,-3.28761,35.73331,Arusha,Karatu,Rhotia,Akko,Government
290,-3.5228316,35.3446233,Arusha,Karatu,Mang'ola,Antsa,Government
291,-3.3257735,35.7061744,Arusha,Karatu,Ganako,Askofu Hhando,Government
292,-3.3160236,35.7828123,Arusha,Karatu,Rhotia,Aslin,Government
293,-3.41388,35.67214,Arusha,Karatu,Qurus,Aslin Gongali,Government
294,-3.317702,35.690452,Arusha,Karatu,Ganako,Ayalabe,Government
295,-3.657525,35.6475333,Arusha,Karatu,Buger,Ayalaliyo,Government
296,-3.3333333,35.4444444,Arusha,Karatu,Rhotia,Ayatsere,Government
297,-3.6742049,35.5685333,Arusha,Karatu,Kansay,Barakta,Government
298,-3.3605848,35.6019046,Arusha,Karatu,Endamarariek,Baray Khusumay,Government
299,-3.3610566,35.6340316,Arusha,Karatu,Qurus,Bashay,Government
300,-3.442552,35.671485,Arusha,Karatu,Endamarariek,Basodawish,Government
301,-3.1934,35.3908,Arusha,Karatu,Ganako,Black Rhino Academy,Non-Government
302,-3.222795,35.876697,Arusha,Karatu,Mbulumbulu,Bonde La Faru,Government
303,-3.6404247,35.6531339,Arusha,Karatu,Buger,Buger,Government
304,-3.2035196,35.4030078,Arusha,Karatu,Karatu,Bwawani,Government
305,-3.3454532,35.6731683,Arusha,Karatu,Karatu,Catherine,Non-Government
306,-3.3850433,35.5777433,Arusha,Karatu,Daa,Changarawe,Government
307,-3.3470399,35.6151801,Arusha,Karatu,Karatu,Charm Modern,Non-Government
308,-3.3887712,35.7651712,Arusha,Karatu,Rhotia,Chemchem,Government
309,-3.469974,35.6782083,Arusha,Karatu,Karatu,Costigan,Non-Government
310,-3.4031878,35.9119987,Arusha,Karatu,Mbulumbulu,Dirangw,Government
311,-3.586457,35.314628,Arusha,Karatu,Baray,Dumbechand,Government
312,-3.5194717,35.6608983,Arusha,Karatu,Endamarariek,Duuma,Government
313,-3.586628,35.603035,Arusha,Karatu,Endabash,Endabash,Government
314,-3.5718799,35.611722,Arusha,Karatu,Endabash,Endabash Laja,Government
315,-3.562472,35.616441,Arusha,Karatu,Endabash,Endabash Mangisa,Government
316,-3.6494883,35.5850033,Arusha,Karatu,Kansay,Endagesh,Government
317,-3.4599077,35.7383688,Arusha,Karatu,Endamarariek,Endallah,Government
318,-3.5056047,35.3653696,Arusha,Karatu,Endamaghang,Endamaghang,Government
319,-3.5014567,35.6707933,Arusha,Karatu,Endamarariek,Endamarariek,Government
320,-3.3544275,35.6057739,Arusha,Karatu,Daa,Endashangwet,Government
321,-3.7911399,35.9385966,Arusha,Karatu,Baray,Endesh,Government
322,-3.387446,35.758772,Arusha,Karatu,Buger,Endonyawet,Government
323,-3.3355454,35.4039434,Arusha,Karatu,Karatu,Endoro,Government
324,-3.523455,35.30069,Arusha,Karatu,Mang'ola,Eyasi,Government
325,-3.6269319,35.6518928,Arusha,Karatu,Buger,Gamdi,Government
326,-3.324141,35.60462911,Arusha,Karatu,Ganako,Ganako,Government
327,-3.6319733,35.6047266,Arusha,Karatu,Kansay,Geer,Government
328,-3.397935,35.6898116,Arusha,Karatu,Qurus,Gendaa,Government
329,-3.5193351,35.7113572,Arusha,Karatu,Endamarariek,Getamock,Government
330,-3.7267383,35.0904083,Arusha,Karatu,Baray,Gidamilanda,Government
331,-3.5016491,35.6462815,Arusha,Karatu,Endamarariek,Gidbasso,Government
332,-3.2876566,35.7634466,Arusha,Karatu,Rhotia,Gilala,Government
333,-3.39049,35.65499,Arusha,Karatu,Qurus,Gongali,Government
334,-3.35305166,35.67623166,Arusha,Karatu,Karatu,Gyekrum Arusha,Government
335,-3.2310148,35.4217796,Arusha,Karatu,Qurus,Gyekrum Lambo,Government
336,-3.1940445,35.3350964,Arusha,Karatu,Oldeani,Gyetighi,Government
337,-3.6602497,35.5766187,Arusha,Karatu,Kansay,Haraa,Government
338,-3.340221,35.7431299,Arusha,Karatu,Rhotia,Hareabi,Government
339,-3.4745417,35.4669533,Arusha,Karatu,Baray,Haydesh,Government
340,-3.3226262,35.7106732,Arusha,Karatu,Ganako,Haymu,Government
341,-3.368767,35.734148,Arusha,Karatu,Rhotia,Juhudi,Government
342,-3.3552296,35.726875,Arusha,Karatu,Rhotia,Kainam Rhotia,Government
343,-3.6223766,35.6133899,Arusha,Karatu,Kansay,Kambi Ya Faru,Government
344,-3.3230678,35.6044887,Arusha,Karatu,Ganako,Kambi Ya Nyoka,Government
345,-3.2824066,35.8135016,Arusha,Karatu,Mbulumbulu,Kambi Ya Simba,Government
346,-3.6697136,35.5949753,Arusha,Karatu,Kansay,Kansay,Government
347,-3.3472211,35.6946583,Arusha,Karatu,Karatu,Karatu,Government
348,-3.342866,35.658793,Arusha,Karatu,Qurus,Karatu New Vision School,Non-Government
349,-3.369537,35.797881,Arusha,Karatu,Rhotia,Kibaoni,Government
350,-3.3696785,35.8072205,Arusha,Karatu,Rhotia,Kilimamoja,Government
351,-3.198307,35.444326,Arusha,Karatu,Rhotia,Kilimatembo,Government
352,-3.3592821,35.6597991,Arusha,Karatu,Qurus,Kinihhe,Government
353,-3.5062199,35.3834598,Arusha,Karatu,Mang'ola,Kisimangeda,Government
354,-3.221795,35.896697,Arusha,Karatu,Mbulumbulu,Kitete Kcu,Government
355,-3.2470652,35.8330285,Arusha,Karatu,Mbulumbulu,Kitete Ws,Government
356,-3.5416766,35.3121166,Arusha,Karatu,Mang'ola,Laghangarer,Government
357,-3.6381757,35.5615466,Arusha,Karatu,Kansay,Laja,Government
358,-3.184095,35.9055433,Arusha,Karatu,Mbulumbulu,Lositete,Government
359,-3.427233,35.645661,Arusha,Karatu,Qurus,Magesho,Government
360,-3.5109949,35.7085353,Arusha,Karatu,Endamarariek,Mahhaha,Government
361,-3.3882612,35.436671,Arusha,Karatu,Daa,Makhoromba,Government
362,-3.506129,35.355226,Arusha,Karatu,Mang'ola,Mangola Barazani,Government
363,-3.5275966,35.3329883,Arusha,Karatu,Mang'ola,Mangola Chini,Government
364,-3.3478801,35.6705611,Arusha,Karatu,Daa,Mang'Ola Juu,Government
365,-3.5526333,35.3409516,Arusha,Karatu,Baray,Mang'Ola Nt,Government
366,-3.4391166,35.7619916,Arusha,Karatu,Endamarariek,Manusay,Government
367,-3.3530768,35.7900956,Arusha,Karatu,Rhotia,Marar,Government
368,-3.3058476,35.7154078,Arusha,Karatu,Rhotia,Marera,Government
369,-3.2595116,35.8307916,Arusha,Karatu,Mbulumbulu,Marmo,Government
370,-3.5055522,35.7121901,Arusha,Karatu,Endamarariek,Massabeda,Government
371,-3.876445,35.751295,Arusha,Karatu,Baray,Matala,Government
372,-3.5364116,35.3770483,Arusha,Karatu,Baray,Mbuganyekundu,Government
373,-3.269838,35.794488,Arusha,Karatu,Mbulumbulu,Mbulumbulu,Government
374,-3.5332417,35.3714112,Arusha,Karatu,Baray,Mbuyuni,Government
375,-3.3583888,35.6237304,Arusha,Karatu,Endamarariek,Mchangani,Government
376,-3.34664,35.63851,Arusha,Karatu,Oldeani,Meali,Government
377,-3.387958,35.673665,Arusha,Karatu,Qurus,Menday,Government
378,-3.4534516,35.5119099,Arusha,Karatu,Daa,Midabini,Government
379,-3.448669,35.361203,Arusha,Karatu,Endamaghang,Mikocheni,Government
380,-3.7614233,35.0094404,Arusha,Karatu,Baray,Mohedagew,Government
381,-3.64455576,35.5733378,Arusha,Karatu,Baray,Murus,Government
382,-3.3716814,35.6084517,Arusha,Karatu,Qurus,Njia Panda,Government
383,-3.887149,35.810741,Arusha,Karatu,Baray,Njoro,Government
384,-3.3535083,35.5578378,Arusha,Karatu,Oldeani,Oldeani,Government
385,-3.5026867,35.3943983,Arusha,Karatu,Baray,Qangdend,Government
386,-3.5204199,35.6199713,Arusha,Karatu,Endabash,Qaru,Government
387,-3.5322416,35.6509016,Arusha,Karatu,Endabash,Qaru Lambo,Government
388,-3.5216133,35.6009966,Arusha,Karatu,Endabash,Qaru Saramay,Government
389,-3.435155,35.6095633,Arusha,Karatu,Qurus,Qurus,Government
390,-3.3084634,35.732386,Arusha,Karatu,Rhotia,Rhotia,Government
391,-3.2760353,35.8881344,Arusha,Karatu,Mbulumbulu,Sabasaba,Government
392,-3.4932162,35.6479897,Arusha,Karatu,Endamarariek,Shangit,Government
393,-3.5156849,35.6912369,Arusha,Karatu,Endamarariek,Shauri Awaki,Government
394,-3.3123098,35.7336408,Arusha,Karatu,Mbulumbulu,Slahhamo,Government
395,-3.33330427,35.6663623,Arusha,Karatu,Ganako,Sumawe,Government
396,-3.4199456,35.9268008,Arusha,Karatu,Rhotia,Tidivi,Government
397,-3.3319405,35.6772757,Arusha,Karatu,Ganako,Tloma,Government
398,-3.3348011,35.6715431,Arusha,Karatu,Karatu,Tumaini Junior,Non-Government
399,-3.338393,35.5338183,Arusha,Karatu,Kansay,Umbangw,Government
400,-3.3061424,35.7324942,Arusha,Karatu,Rhotia,Umoja,Government
401,-3.8646933,34.8868567,Arusha,Karatu,Baray,Yamaweega,Non-Government
402,-2.7166666,36.7,Arusha,Longido,Longido,Abernathy,Non-Government
403,-2.65,36.7833333,Arusha,Longido,Namanga,Buguruni,Government
404,-2.9333333,36.2333333,Arusha,Longido,Elang'atadapash,Elang'Atadapash,Government
405,-2.9166666,37.0666666,Arusha,Longido,Olmolog,Elerai,Government
406,-2.35,36.3666666,Arusha,Longido,Matale A,Emurtoto,Government
407,-2.5166666,36.4833333,Arusha,Longido,Engarenaibor,Engarenaibor,Government
408,-3.0333333,36.6833333,Arusha,Longido,Engikaret,Engikaret,Government
409,-2.55,36.7666666,Arusha,Longido,Kimokouwa,Eorendeke,Government
410,-2.7166666,36.1,Arusha,Longido,Gelai Meirugoi,Gelai Bomba,Government
411,-2.6,36.1833333,Arusha,Longido,Gelai Lumbwa,Gelai Lumbwa,Government
412,-2.8666666,36.1833333,Arusha,Longido,Ilorienito,Iloirienito,Government
413,-2.8666666,37.2042217,Arusha,Longido,Kamwanga,Irkaswa,Government
414,-2.3833333,36.4833333,Arusha,Longido,Matale A,Irng'Ong'Wen,Government
415,-2.8666666,37.3521317,Arusha,Longido,Kamwanga,Kamwanga,Government
416,-2.8166666,36.3,Arusha,Longido,Ketumbeine,Ketumbeine,Government
417,-2.6333333,36.7,Arusha,Longido,Kimokouwa,Kimokouwa,Government
418,-2.4166666,36.5333333,Arusha,Longido,Engarenaibor,Kimwati,Government
419,-2.8333333,36.5166666,Arusha,Longido,Engikaret,Kiserian,Government
420,-2.6166666,36.45,Arusha,Longido,Mundarara,Kitarini,Government
421,-2.8505683,37.2333333,Arusha,Longido,Kamwanga,Kitendeni,Government
422,-2.8333333,37.1833333,Arusha,Longido,Olmolog,Lerang'Wa,Government
423,-2.6333333,35.55,Arusha,Longido,Mundarara,Lesing'Ita,Government
424,-2.6833333,36.7,Arusha,Longido,Longido,Longido,Government
425,-2.7375043,36.7002351,Arusha,Longido,Longido,Longido Modern,Non-Government
426,-2.7833333,36.3,Arusha,Longido,Ketumbeine,Lopoloseki,Government
427,-2.8333333,36.0,Arusha,Longido,Ilorienito,Losirwa,Government
428,-2.55,36.7666666,Arusha,Longido,Kimokouwa,Maasai Academy,Non-Government
429,-3.6166666,36.0,Arusha,Longido,Gelai Meirugoi,Magadini,Government
430,-2.5333333,36.4833333,Arusha,Longido,Engarenaibor,Mairowa Integrity,Non-Government
431,-2.85,36.3166666,Arusha,Longido,Ketumbeine,Mangula,Government
432,-2.4333333,36.4166666,Arusha,Longido,Matale A,Matale,Government
433,-2.6166666,36.6,Arusha,Longido,Mundarara,Mundarara,Government
434,-2.75,36.6166666,Arusha,Longido,Orbomba,Naiborsoit,Government
435,-2.55,36.7833333,Arusha,Longido,Namanga,Namanga,Government
436,-3.0,36.6666666,Arusha,Longido,Engikaret,New Vision,Non-Government
437,-2.9833333,36.8553366,Arusha,Longido,Tingatinga,Ngereyani,Government
438,-2.5,36.4833333,Arusha,Longido,Engarenaibor,Ngoswak,Government
439,-2.9833333,36.2833333,Arusha,Longido,Noondoto,Noondoto,Government
440,-2.9,36.25,Arusha,Longido,Elang'atadapash,Olchoronyokie,Government
441,-2.8666666,37.1166666,Arusha,Longido,Olmolog,Olmolog,Government
442,-2.8833333,37.0666666,Arusha,Longido,Olmolog,Olmoti,Government
443,-2.7333333,36.7166666,Arusha,Longido,Orbomba,Oltepes,Government
444,-2.7166666,36.6666666,Arusha,Longido,Orbomba,Orbomba,Government
445,-2.7833333,36.6666666,Arusha,Longido,Orbomba,Ranch,Government
446,-2.5,36.5833333,Arusha,Longido,Engarenaibor,Sinonik,Government
447,-2.7833333,36.95,Arusha,Longido,Sinya,Sinya,Government
448,-2.9333333,36.2166666,Arusha,Longido,Elang'atadapash,Sokon,Government
449,-2.55,36.7833333,Arusha,Longido,Kimokouwa,St.Theresa,Non-Government
450,-2.9666666,36.9560616,Arusha,Longido,Tingatinga,Tingatinga,Government
451,-3.55065,36.90053,Arusha,Meru,Shambarai Burka,Aimbora Junior,Non-Government
452,-3.3461,36.77586,Arusha,Meru,Akheri,Akeri,Government
453,-3.34814,36.77505,Arusha,Meru,Akheri,Akeri Hope,Non-Government
454,-3.37221,36.84475,Arusha,Meru,Usariver,Amani,Non-Government
455,-3.36451,36.75255,Arusha,Meru,Ambureni,Ambureni,Government
456,-3.35609,36.84322,Arusha,Meru,Nkoaranga,Bernadeta,Non-Government
457,-3.37221,36.84475,Arusha,Meru,Usariver,Bethlehem Star,Non-Government
458,-3.39492,36.82098,Arusha,Meru,Kikwe,Blue Sky,Non-Government
459,-3.38387,36.83443,Arusha,Meru,Poli,Capricon,Non-Government
460,-3.38521,36.93892,Arusha,Meru,Kikatiti,Chemchem,Government
461,-3.37522,36.89516,Arusha,Meru,Maji ya chai,Cherith,Non-Government
462,-3.36898,36.75682,Arusha,Meru,Ambureni,Davis Preparatory,Non-Government
463,-3.36294,36.89074,Arusha,Meru,Imbaseni,Destiny,Non-Government
464,-3.36939,36.88487,Arusha,Meru,Imbaseni,Diamond,Non-Government
465,-3.42892,36.87966,Arusha,Meru,Maroroni,Dolly,Government
466,-3.25112,36.9705,Arusha,Meru,Maruvango,East Meru,Non-Government
467,-3.36568,37.05779,Arusha,Meru,Malula,Elizabeth Centre,Non-Government
468,-3.17076,36.9054,Arusha,Meru,Ngarenanyuki,Emanuel,Government
469,-3.50994,36.99998,Arusha,Meru,Majengo,Engatani,Government
470,-3.30941,37.02618,Arusha,Meru,Malula,Engejisosia,Government
471,-3.31848,36.87289,Arusha,Meru,Imbaseni,Ester Memorial,Non-Government
472,-3.21742,36.96405,Arusha,Meru,Maruvango,Etingare,Government
473,-3.35995,36.8979,Arusha,Meru,Imbaseni,Francis De Sales,Non-Government
474,-3.33801,36.76138,Arusha,Meru,Nkoanrua,Grace Ulong'A,Non-Government
475,-3.36494,36.76423,Arusha,Meru,Ambureni,Haradali,Non-Government
476,-3.37984,36.89465,Arusha,Meru,Maji ya chai,Holy Peak,Non-Government
477,-3.17076,36.90542,Arusha,Meru,Ngarenanyuki,Ilkirimuni,Government
478,-3.34221,36.89029,Arusha,Meru,Imbaseni,Imbaseni,Government
479,-3.36578,36.89547,Arusha,Meru,Imbaseni,Imbaseni Peace,Non-Government
480,-3.23721,36.91396,Arusha,Meru,Leguruki,Jali Green,Non-Government
481,-3.46107,37.0404,Arusha,Meru,Majengo,Kaloleni,Government
482,-3.20423,36.93916,Arusha,Meru,Leguruki,Kandashe,Government
483,-3.47449,36.86588,Arusha,Meru,Kikwe,Karangai,Government
484,-3.37933,36.9001,Arusha,Meru,Maji ya chai,Kellys,Non-Government
485,-3.3799,36.85835,Arusha,Meru,Usariver,Kenedy House,Non-Government
486,-3.5616423,36.892397,Arusha,Meru,Shambarai Burka,Kerikeny,Government
487,-3.40168,36.94381,Arusha,Meru,Kikatiti,Kikatiti,Government
488,-3.42414,36.82788,Arusha,Meru,Kikwe,Kikwe,Government
489,-3.36895,36.84644,Arusha,Meru,Usariver,Kilimani,Government
490,-3.31541,36.83574,Arusha,Meru,Songoro,Kilinga,Government
491,-3.38697,36.9249,Arusha,Meru,Maji ya chai,Kimandafu,Government
492,-3.12764,36.86704,Arusha,Meru,Uwiro,Kimosonu,Government
493,-3.35069,36.78198,Arusha,Meru,Nkoarisambu,Kimundo,Government
494,-3.30435,36.98944,Arusha,Meru,King'ori,King'Ori,Government
495,-3.29659,36.97886,Arusha,Meru,King'ori,Kirenga,Government
496,-3.16683,36.81672,Arusha,Meru,Uwiro,Kisimiri Chini,Government
497,-3.14948,36.77242,Arusha,Meru,Uwiro,Kisimiri Juu,Government
498,-3.39129,36.90137,Arusha,Meru,Maji ya chai,Kitefu,Government
499,-3.392294,36.8130828,Arusha,Meru,Songoro,Kiwahudu,Non-Government
500,-3.3381,36.87532,Arusha,Meru,Imbaseni,Kiwawa,Government
501,-3.33539,37.03922,Arusha,Meru,Malula,Kolila,Government
502,-3.34234,36.81475,Arusha,Meru,Nkoaranga,Kombo,Non-Government
503,-3.27494,36.97886,Arusha,Meru,King'ori,Kwa Tulele,Government
504,-3.46656,36.87661,Arusha,Meru,Maroroni,Kwa Ugoro,Government
505,-3.36987,36.84684,Arusha,Meru,Usariver,Leganga,Government
506,-3.25452,36.94741,Arusha,Meru,Maruvango,Leguruki,Government
507,-3.19516,36.89053,Arusha,Meru,Ngarenanyuki,Lendoiya,Government
508,-3.34052,36.91476,Arusha,Meru,Maji ya chai,Lerai,Government
509,-3.47392,36.9523,Arusha,Meru,Makiba,Lositeti,Government
510,-3.48708,37.01328,Arusha,Meru,Majengo,Majengo,Government
511,-3.36177,36.91515,Arusha,Meru,Maji ya chai,Maji Ya Chai,Government
512,-3.53357,36.96211,Arusha,Meru,Makiba,Makiba,Government
513,-3.35719,36.82574,Arusha,Meru,Poli,Makumira,Government
514,-3.37389,36.83031,Arusha,Meru,Poli,Makumira-Kilala,Non-Government
515,-3.37189,37.02258,Arusha,Meru,Malula,Malula,Government
516,-3.41891,36.84597,Arusha,Meru,Usariver,Manyata,Government
517,-3.37517,37.01936,Arusha,Meru,Malula,Manyota,Non-Government
518,-3.31654,36.97366,Arusha,Meru,King'ori,Mareu,Government
519,-3.38061,36.8446,Arusha,Meru,Poli,Mariado,Non-Government
520,-3.43609,36.90921,Arusha,Meru,Maroroni,Maroroni,Government
521,-3.24996,36.98722,Arusha,Meru,Maruvango,Maruango,Government
522,-3.10823,36.9202,Arusha,Meru,Ngabobo,Masai Vision,Government
523,-3.35556,36.84117,Arusha,Meru,Nkoaranga,Maua Academy,Non-Government
524,-3.35844,36.77546,Arusha,Meru,Akheri,Mavinuni,Government
525,-3.45494,36.85388,Arusha,Meru,Kikwe,Maweni,Government
526,-3.23726,36.95727,Arusha,Meru,Maruvango,Mbaaseny,Government
527,-3.27646,37.03239,Arusha,Meru,King'ori,Mboreny,Government
528,-3.54292,36.91769,Arusha,Meru,Mbuguni,Mbuguni,Government
529,-3.33241,36.88148,Arusha,Meru,Imbaseni,Meru Peak,Non-Government
530,-3.46645,36.87651,Arusha,Meru,Maroroni,Meru Vision,Non-Government
531,-3.33491,36.77079,Arusha,Meru,Nkoarisambu,Mfulony,Government
532,-3.55709,36.93161,Arusha,Meru,Mbuguni,Miembeni,Government
533,-3.4419,36.8893,Arusha,Meru,Maroroni,Migandini,Government
534,-3.56574,36.95368,Arusha,Meru,Mbuguni,Mikungani,Government
535,-3.34516,37.00078,Arusha,Meru,Malula,Mikuuni,Government
536,-3.22491,36.92253,Arusha,Meru,Leguruki,Miririni,Government
537,-3.39446,36.89632,Arusha,Meru,Maji ya chai,Mkombozi,Non-Government
538,-3.3738,36.75595,Arusha,Meru,Ambureni,Moivaro,Government
539,-3.23475,36.98478,Arusha,Meru,Maruvango,Mowara,Government
540,-3.52412,36.88332,Arusha,Meru,Shambarai Burka,Msitu Wa Mbogo,Government
541,-3.1263,36.80268,Arusha,Meru,Uwiro,Mukuru,Government
542,-3.31997,36.82991,Arusha,Meru,Songoro,Mulala,Government
543,-3.1919,36.83618,Arusha,Meru,Ngarenanyuki,Mwakeny,Government
544,-3.39584,36.80696,Arusha,Meru,Kikwe,Nambala,Government
545,-3.14105,36.877228,Arusha,Meru,Ngarenanyuki,Nariva,Non-Government
546,-3.21638,36.86165,Arusha,Meru,Ngarenanyuki,Nasula,Government
547,-3.34142,36.81375,Arusha,Meru,Maji ya chai,Nazareth Lerai,Non-Government
548,-3.46159,36.91671,Arusha,Meru,Maroroni,Nazareti,Government
549,-3.32536,36.77525,Arusha,Meru,Nkoarisambu,Ndoombo,Government
550,-3.40655,36.82732,Arusha,Meru,Kikwe,New Hope,Non-Government
551,-3.10841,36.89384,Arusha,Meru,Ngabobo,Ngabobo,Government
552,-3.4048,36.79421,Arusha,Meru,Kikwe,Nganana,Government
553,-3.14979,36.8403,Arusha,Meru,Uwiro,Ngarenanyuki,Government
554,-3.31638,36.88242,Arusha,Meru,Imbaseni,Ngongongare,Government
555,-3.34008,36.90759,Arusha,Meru,Maji ya chai,Ngorika Happy Watoto,Non-Government
556,-3.32781,36.91238,Arusha,Meru,Maji ya chai,Ngurdoto,Government
557,-3.37137,36.77364,Arusha,Meru,Akheri,Nguruma,Government
558,-3.33608,36.82594,Arusha,Meru,Nkoaranga,Ngyani,Government
559,-3.34634,36.9234,Arusha,Meru,Kikatiti,Ngyeku,Government
560,-3.23417,36.93069,Arusha,Meru,Leguruki,Niruvande,Non-Government
561,-3.34052,36.80011,Arusha,Meru,Poli,Nkoakirika,Government
562,-3.38085,36.97173,Arusha,Meru,Kikatiti,Nkoamangasha,Government
563,-3.33469,36.85623,Arusha,Meru,Nkoanekoli,Nkoanekoli,Government
564,-3.3502,36.76664,Arusha,Meru,Nkoanrua,Nkoanrua,Government
565,-3.25923,37.01685,Arusha,Meru,King'ori,Nkoansiyo,Government
566,-3.33608,36.82594,Arusha,Meru,Nkoaranga,Nkoaranga,Government
567,-3.2511,36.91169,Arusha,Meru,Leguruki,Nkoasenga,Government
568,-3.19396,36.91396,Arusha,Meru,Leguruki,Noseiya,Government
569,-3.35999,37.03252,Arusha,Meru,Malula,Nrumangeni,Government
570,-3.34923,36.83427,Arusha,Meru,Nkoaranga,Nshupu,Government
571,-3.29504,37.01963,Arusha,Meru,Malula,Ntuwe,Government
572,-3.28688,36.99002,Arusha,Meru,King'ori,Nuru,Government
573,-3.56185,36.09753,Arusha,Meru,Shambarai Burka,Oldeves,Government
574,-3.17037,36.86645,Arusha,Meru,Ngarenanyuki,Olkug'Wado,Government
575,-3.36954,36.78674,Arusha,Meru,Akheri,Patandi,Government
576,-3.51591,36.94673,Arusha,Meru,Makiba,Patanumbe,Government
577,-3.33773,36.77367,Arusha,Meru,Nkoarisambu,Peace Matunda,Non-Government
578,-3.58853,36.91339,Arusha,Meru,Mbuguni,Pieralba,Non-Government
579,-3.35203,36.80303,Arusha,Meru,Poli,Poli,Government
580,-3.34795,36.83791,Arusha,Meru,Nkoaranga,Precious,Non-Government
581,-3.34562,36.95773,Arusha,Meru,Kikatiti,Sakila,Government
582,-3.43281,36.97215,Arusha,Meru,Maroroni,Samaria,Government
583,-3.34333,36.85142,Arusha,Meru,Nkoanekoli,Sangananu,Government
584,-3.40918,36.99273,Arusha,Meru,Maroroni,Savana,Government
585,-3.37893785,36.75606427,Arusha,Meru,Ambureni,Sayuni,Non-Government
586,-3.33093,36.7858,Arusha,Meru,Seela Sing'isi,Seela,Government
587,-3.39402,36.9434,Arusha,Meru,Kikatiti,Shakina,Non-Government
588,-3.33406,36.8119,Arusha,Meru,Nkoaranga,Shikabania,Non-Government
589,-3.23175,36.94874,Arusha,Meru,Maruvango,Shishtony,Government
590,-3.41246,36.82375,Arusha,Meru,Kikwe,Silver,Non-Government
591,-3.3422,36.87945,Arusha,Meru,Imbaseni,Silverleaf,Non-Government
592,-3.10355,36.88194,Arusha,Meru,Ngabobo,Simba Vision,Government
593,-3.19396,36.90686,Arusha,Meru,Leguruki,Sinai,Government
594,-3.31326,36.792,Arusha,Meru,Seela Sing'isi,Sing'Isi,Government
595,-3.34285,36.96473,Arusha,Meru,Kikatiti,Sluys Anderson,Non-Government
596,-3.31784,36.81653,Arusha,Meru,Songoro,Songoro,Government
597,-3.39544,36.90667,Arusha,Meru,Maji ya chai,St. Vivian,Non-Government
598,-3.36508,36.90629,Arusha,Meru,Maji ya chai,Sunshield,Non-Government
599,-3.32453,36.7974,Arusha,Meru,Songoro,Sura,Government
600,-3.36489,36.93792,Arusha,Meru,Kikatiti,Surumala,Government
601,-3.22156,36.88163,Arusha,Meru,Imbaseni,Tanzania Adventist,Non-Government
602,-3.54449,36.91684,Arusha,Meru,Mbuguni,Tanzanite,Government
603,-3.38018,36.80182,Arusha,Meru,Akheri,Tengeru,Government
604,-3.36141,36.78083,Arusha,Meru,Akheri,Tengeru English Medium,Non-Government
605,-3.37242,36.88204,Arusha,Meru,Imbaseni,Tumaini  Mission,Non-Government
606,-3.36398,36.89997,Arusha,Meru,Maji ya chai,Tuvaila,Government
607,-3.33618,36.75756,Arusha,Meru,Nkoanrua,Ulong'A,Government
608,-3.28055,37.00745,Arusha,Meru,King'ori,Upendo,Government
609,-3.37736,36.84352,Arusha,Meru,Usariver,Upendo Academy,Non-Government
610,-3.38502,36.8329,Arusha,Meru,Poli,Uraki,Government
611,-3.32175,36.81051,Arusha,Meru,Songoro,Urisho,Government
612,-3.36393,36.85551,Arusha,Meru,Usariver,Usa River,Government
613,-3.3585,36.86495,Arusha,Meru,Usariver,Usa River Academy,Non-Government
614,-3.32316,36.79617,Arusha,Meru,Songoro,Ushili,Government
615,-3.51499,36.91898,Arusha,Meru,Makiba,Valeska,Government
616,-3.21176,36.86326,Arusha,Meru,Ngarenanyuki,Worseg Vision,Government
617,-3.36633,36.85555,Arusha,Meru,Usariver,Youngroses,Non-Government
618,-3.326774,36.302944,Arusha,Monduli,Sepeko,Arkaria,Government
619,-3.4190996,36.3925678,Arusha,Monduli,Sepeko,Arkatani,Government
620,-3.348853,35.865749,Arusha,Monduli,Majengo,Bandari,Non-Government
621,-3.3597625,35.9046817,Arusha,Monduli,Esilalei,Baraka,Government
622,-3.222242,36.364997,Arusha,Monduli,Monduli juu,Eluwai,Government
623,-3.289413,36.449105,Arusha,Monduli,Engutoto,Emburis,Non-Government
624,-3.545597,35.938214,Arusha,Monduli,Esilalei,Endepesi,Government
625,-3.318481,36.245002,Arusha,Monduli,Lepurko,Eng'Arooji,Government
626,-3.000683,36.004758,Arusha,Monduli,Engaruka,Engaruka Chini,Government
627,-2.99772,35.962545,Arusha,Monduli,Engaruka,Engaruka Juu,Government
628,-3.4099563,36.2354446,Arusha,Monduli,Lepurko,Engirgir,Government
629,-3.236976,36.427041,Arusha,Monduli,Monduli juu,Enguiki,Government
630,-3.3517066,36.3776488,Arusha,Monduli,Sepeko,Eretore,Non-Government
631,-3.4455756,35.9538537,Arusha,Monduli,Esilalei,Esilalei,Government
632,-3.316397,35.891054,Arusha,Monduli,Esilalei,Eunoto,Government
633,-3.5497262,36.1119154,Arusha,Monduli,Makuyuni,Hiha,Non-Government
634,-3.265574,36.341739,Arusha,Monduli,Monduli juu,Irmorijo,Government
635,-3.287434,36.437301,Arusha,Monduli,Engutoto,Jaerim,Non-Government
636,-3.386481,35.855789,Arusha,Monduli,Mto wa Mbu,Jangwani,Government
637,-3.415004,36.321258,Arusha,Monduli,Sepeko,Khatimul Ambiyaa,Non-Government
638,-3.3802243,35.8897444,Arusha,Monduli,Migungani,Kigongoni,Government
639,-3.635536,36.592745,Arusha,Monduli,Moita,Kilimatinde,Government
640,-3.4825589,35.9971582,Arusha,Monduli,Esilalei,Laiboni,Government
641,-3.374085,35.889872,Arusha,Monduli,Esilalei,Lake Manyara,Non-Government
642,-3.327807,36.439287,Arusha,Monduli,Lashaine,Lashaine,Government
643,-3.763849,36.310248,Arusha,Monduli,Lemooti,Lemooti,Government
644,-3.345865,36.354322,Arusha,Monduli,Sepeko,Lendikinya,Government
645,-3.780741,36.396486,Arusha,Monduli,Lemooti,Lengijape,Government
646,-3.66507,36.469082,Arusha,Monduli,Naalarami,Lengiloriti,Government
647,-3.755865,36.398707,Arusha,Monduli,Lemooti,Lengolwa,Government
648,-3.355327,36.226719,Arusha,Monduli,Lepurko,Lepurko,Government
649,-3.764467,36.419246,Arusha,Monduli,Lolkisale,Lokisale,Government
650,-3.768447,36.486317,Arusha,Monduli,Lemooti,Loosikito,Government
651,-3.399942,36.4909101,Arusha,Monduli,Meserani,Loosingirani,Government
652,-3.420302,36.181454,Arusha,Monduli,Lepurko,Losimingori,Government
653,-3.4043305,35.9116882,Arusha,Monduli,Esilalei,Losirwa,Government
654,-3.348419,36.864657,Arusha,Monduli,Majengo,Majengo,Government
655,-3.5535675,36.1000115,Arusha,Monduli,Makuyuni,Makuyuni,Government
656,-3.529363,36.4510167,Arusha,Monduli,Makuyuni,Manyara Ranch,Government
657,-3.2988896,36.4510167,Arusha,Monduli,Monduli Mjini,Mazoezi,Government
658,-3.208522,36.058332,Arusha,Monduli,Selela,Mbaash,Government
659,-3.475023,36.203552,Arusha,Monduli,Makuyuni,Mbuyuni,Government
660,-3.524547,36.456151,Arusha,Monduli,Meserani,Meserani Chini,Government
661,-3.437517,36.478776,Arusha,Monduli,Meserani,Meserani Juu,Government
662,-3.295362,36.434877,Arusha,Monduli,Engutoto,Meyers,Non-Government
663,-3.187362,36.458279,Arusha,Monduli,Mfereji,Mfereji,Government
664,-3.3389392,35.8444609,Arusha,Monduli,Majengo,Migombani,Government
665,-3.3004907,36.4571691,Arusha,Monduli,Engutoto,Mlimani,Government
666,-3.559917,36.600996,Arusha,Monduli,Moita,Moita Bwawani,Government
667,-3.47627,36.569395,Arusha,Monduli,Moita,Moita Kiloriti,Government
668,-3.25139,36.394253,Arusha,Monduli,Monduli juu,Monduli Juu,Government
669,-3.302417,36.448553,Arusha,Monduli,Monduli Mjini,Monduli Valley,Non-Government
670,-3.643355,36.014866,Arusha,Monduli,Mswakini,Mswakini,Government
671,-3.674287,36.055547,Arusha,Monduli,Mswakini,Mswakini Juu,Government
672,-3.4063073,36.3051309,Arusha,Monduli,Sepeko,Mti Mmoja,Government
673,-3.372652,35.8514334,Arusha,Monduli,Majengo,Mtowambu,Government
674,-3.372247,35.869387,Arusha,Monduli,Migungani,Mwalimu Anna,Non-Government
675,-3.619819,36.514947,Arusha,Monduli,Naalarami,Naalarami,Government
676,-3.721533,36.406498,Arusha,Monduli,Lolkisale,Nafco,Government
677,-3.509631,36.175669,Arusha,Monduli,Makuyuni,Naiti,Government
678,-3.60275,36.089995,Arusha,Monduli,Mswakini,Naitolia,Government
679,-3.321517,36.448004,Arusha,Monduli,Engutoto,Nanina,Non-Government
680,-3.3967693,36.2536849,Arusha,Monduli,Lepurko,Nanja,Government
681,-3.5474984,36.123859,Arusha,Monduli,Makuyuni,Nashipai,Non-Government
682,-3.220329,35.956388,Arusha,Monduli,Selela,Ndinyika,Government
683,-3.679917,36.605433,Arusha,Monduli,Lolkisale,Ndukusi,Government
684,-3.3798596,35.8909281,Arusha,Monduli,Majengo,Ngalawa,Non-Government
685,-3.2998149,36.4342381,Arusha,Monduli,Engutoto,Ngarash,Government
686,-3.311579,36.475498,Arusha,Monduli,Engutoto,Olarash,Government
687,-3.6333635,35.9206432,Arusha,Monduli,Esilalei,Oltukai,Government
688,-3.383094,35.895403,Arusha,Monduli,Esilalei,Oola,Non-Government
689,-3.309568,36.399394,Arusha,Monduli,Lashaine,Orkeeswa,Government
690,-3.4410696,35.9505411,Arusha,Monduli,Esilalei,Perfect,Non-Government
691,-3.3712432,35.8893667,Arusha,Monduli,Esilalei,Sasa,Non-Government
692,-3.204815,35.945719,Arusha,Monduli,Selela,Selela,Government
693,-3.3186616,36.4510413,Arusha,Monduli,Monduli Mjini,Sinoni,Government
694,-3.4457991,36.1936672,Arusha,Monduli,Makuyuni,Sironga,Government
695,-3.400471,36.462245,Arusha,Monduli,Meserani,Sokoine,Government
696,-3.371428,35.867263,Arusha,Monduli,Migungani,St. Jude,Non-Government
697,-2.9568549,35.7000966,Arusha,Ngorongoro,Alailelai,Alailelai,Government
698,-2.4,35.5,Arusha,Ngorongoro,Arash,Arash,Government
699,-2.147102,35.729123,Arusha,Ngorongoro,Digodigo,Bisikene,Government
700,-2.05082,35.58084,Arusha,Ngorongoro,Orgosorok,Bright,Non-Government
701,-2.9873733,35.803121,Arusha,Ngorongoro,Nainokanoka,Bulati,Government
702,-2.14666,35.74325,Arusha,Ngorongoro,Kirangi,Digodigo,Government
703,-2.1488,35.72868,Arusha,Ngorongoro,Digodigo,Digodigo Gcct,Non-Government
704,-2.29085,35.94852,Arusha,Ngorongoro,Pinyinyi,Embaasi,Government
705,-3.2209716,35.2696964,Arusha,Ngorongoro,Enduleni,Endulen,Government
706,-2.61072,35.87794,Arusha,Ngorongoro,Engaresero,Engarasero,Government
707,-3.451708,35.021796,Arusha,Ngorongoro,Kakesio,Ereko,Government
708,-3.2970283,35.1910483,Arusha,Ngorongoro,Alaitolei,Esere,Government
709,-2.8473555,35.8452233,Arusha,Ngorongoro,Naiyobi,Iltulele,Government
710,-3.242778,35.223932,Arusha,Ngorongoro,Alaitolei,Indoinyo,Government
711,-3.0724892,35.6907548,Arusha,Ngorongoro,Nainokanoka,Irkeepus,Government
712,-2.9399166,35.52559499,Arusha,Ngorongoro,Olbalbal,Irkipor,Government
713,-2.13722217,35.8837054,Arusha,Ngorongoro,Oldonyosambu,Jema,Government
714,-3.3797712,35.987556,Arusha,Ngorongoro,Kakesio,Kakesio,Government
715,-2.9303033,35.8906567,Arusha,Ngorongoro,Naiyobi,Kapenjiro,Government
716,-1.961215,35.3631967,Arusha,Ngorongoro,Soitsambu,Kirtalo,Government
717,-2.1318688,35.7654514,Arusha,Ngorongoro,Kirangi,Kisangiro,Government
718,-2.12983,35.57855,Arusha,Ngorongoro,Olorien/Magaiduru,Lemishiri,Government
719,-2.05246,35.62398,Arusha,Ngorongoro,Orgosorok,Loliondo,Government
720,-2.0577,35.61667,Arusha,Ngorongoro,Orgosorok,Loliondo Gcct English Medium,Non-Government
721,-2.0876875,35.5621953,Arusha,Ngorongoro,Maalon,Loosoito,Government
722,-3.2401147,35.4901053,Arusha,Ngorongoro,Nainokanoka,Loresho,Government
723,-2.09479,35.63258,Arusha,Ngorongoro,Olorien/Magaiduru,Lorien,Government
724,-5.833231,35.449566,Dodoma,Bahi,Lamaiti,Bankolo,Government
725,-2.0571345,35.55622294,Arusha,Ngorongoro,Olorien/Magaiduru,Lumo English Medium,Non-Government
726,-2.24893,35.57877,Arusha,Ngorongoro,Maalon,Maalon,Government
727,-2.1431,35.68008,Arusha,Ngorongoro,Samunge,Mageri,Government
728,-1.870129,35.3699528,Arusha,Ngorongoro,Ololosokwan,Mairowa,Government
729,-3.2424633,35.48374,Arusha,Ngorongoro,Ngorongoro,Makao Mapya,Government
730,-2.515623,35.60194,Arusha,Ngorongoro,Malambo,Malambo,Government
731,-2.08414,35.54258,Arusha,Ngorongoro,Olorien/Magaiduru,Mama Sara Lopolun,Government
732,-2.05636,35.55402,Arusha,Ngorongoro,Olorien/Magaiduru,Marie Corrson,Non-Government
733,-2.2653516,35.8072833,Arusha,Ngorongoro,Pinyinyi,Masusu,Government
734,-2.22413,35.67881,Arusha,Ngorongoro,Sale,Mdito,Government
735,-2.16098,35.66865,Arusha,Ngorongoro,Sale,Mgongo,Government
736,-3.20677037,35.3610128,Arusha,Ngorongoro,Misigyo,Misigiyo,Government
737,-3.3230646,35.4247039,Arusha,Ngorongoro,Ngorongoro,Mokilal,Government
738,-2.9017231,35.3700324,Arusha,Ngorongoro,Soitsambu,Mondoros,Government
739,-2.4978,35.89471,Arusha,Ngorongoro,Engaresero,Monick,Government
740,-2.0183,35.77185,Arusha,Ngorongoro,Enguserosambu,Naan,Government
741,-3.0302011,35.6910901,Arusha,Ngorongoro,Nainokanoka,Nainokanoka,Government
742,-2.8473555,35.8452233,Arusha,Ngorongoro,Naiyobi,Naiyobi,Government
743,-2.513392,35.609813,Arusha,Ngorongoro,Malambo,Naserian English Medium,Non-Government
744,-3.191785,35.278185,Arusha,Ngorongoro,Enduleni,Ndian,Government
745,-2.05898,35.657,Arusha,Ngorongoro,Enguserosambu,Ng'Arwa,Government
746,-3.0432502,35.480435,Arusha,Ngorongoro,Ngoile,Ngoile,Government
747,-1.85895,35.44213,Arusha,Ngorongoro,Ololosokwan,Njoroi,Government
748,-2.45943,35.534276,Arusha,Ngorongoro,Arash,Olalaa,Government
749,-2.9834099,35.5072716,Arusha,Ngorongoro,Olbalbal,Olbalbal,Government
750,-2.9567783,35.6611617,Arusha,Ngorongoro,Alailelai,Olchaniomelock,Government
751,-2.18217161,35.833735,Arusha,Ngorongoro,Oldonyosambu,Oldonyosambu,Government
752,-2.171431,35.568,Arusha,Ngorongoro,Olorien/Magaiduru,Oldonyowas,Government
753,-2.0599317,35.5870628,Arusha,Ngorongoro,Oloipiri,Oloipiri,Government
754,-3.2093383,35.4582016,Arusha,Ngorongoro,Ngorongoro,Oloirobi,Government
755,-1.875433,35.337576,Arusha,Ngorongoro,Ololosokwan,Ololosokwan,Government
756,-3.341943333,35.283255,Arusha,Ngorongoro,Eyasi,Olpiro,Government
757,-2.02321833,35.6209916,Arusha,Ngorongoro,Enguserosambu,Orkiu,Government
758,-2.0599317,35.5870628,Arusha,Ngorongoro,Oloipiri,Orkuyaine,Government
759,-2.4307932,35.4451461,Arusha,Ngorongoro,Arash,Ormanie,Government
760,-3.3634283,35.096261,Arusha,Ngorongoro,Kakesio,Osinoni,Government
761,-3.9716333,35.269696,Arusha,Ngorongoro,Enduleni,Osotwa,Non-Government
762,-2.3111353,35.9418617,Arusha,Ngorongoro,Pinyinyi,Pinyinyi,Government
763,-2.5808033,35.5036533,Arusha,Ngorongoro,Piyaya,Piyaya,Government
764,-2.16032,35.740241,Arusha,Ngorongoro,Digodigo,Rera,Government
765,-2.06106,35.605,Arusha,Ngorongoro,Orgosorok,Sakala,Government
766,-2.296375,35.6896583,Arusha,Ngorongoro,Sale,Sale,Government
767,-2.90092,35.75609499,Arusha,Ngorongoro,Alailelai,Sendui,Government
768,-1.90809,35.42301,Arusha,Ngorongoro,Soitsambu,Soitsambu,Government
769,-3.1391524,35.165628,Arusha,Ngorongoro,Enduleni,St.Luke,Non-Government
770,-1.95868,35.5123,Arusha,Ngorongoro,Oloipiri,Sukenya,Government
771,-2.0571372,35.5622512,Arusha,Ngorongoro,Kirangi,Tinaga,Government
772,-2.514531,35.577971,Arusha,Ngorongoro,Malambo,Tumaini,Government
773,-2.05455,35.564559,Arusha,Ngorongoro,Olorien/Magaiduru,Wasso,Government
774,-2.19591581,35.7016256,Arusha,Ngorongoro,Samunge,Yasimdito,Government
775,-6.807195,39.27996,Dar Es Salaam,Ilala MC,Upanga Magharibi,Al-Madrasatus,Non-Government
776,-6.5840994,39.055611,Dar Es Salaam,Ilala MC,Chanika,Benedict,Non-Government
777,-6.5615321,39.0959543,Dar Es Salaam,Ilala MC,Kivule,Bin Omukama,Non-Government
778,-6.9761116,39.0905283,Dar Es Salaam,Ilala MC,Buyuni,Blue Nile,Non-Government
779,-6.8951266,39.1866483,Dar Es Salaam,Ilala MC,Kitunda,Boanerges,Non-Government
780,-6.5639876,39.0929876,Dar Es Salaam,Ilala MC,Kivule,Bombambili,Government
781,-6.5615506,39.1145442,Dar Es Salaam,Ilala MC,Kivule,Bright African,Non-Government
782,-6.5717222,39.0603253,Dar Es Salaam,Ilala MC,Buyuni,Buyuni Ii,Government
783,-6.5755027,39.1102702,Dar Es Salaam,Ilala MC,Msongola,Casejes,Non-Government
784,-6.5851295,39.0524811,Dar Es Salaam,Ilala MC,Chanika,Chanika,Government
785,-6.5716533,39.1023792,Dar Es Salaam,Ilala MC,Kivule,Daddy,Non-Government
786,-7.0020399,39.0625671,Dar Es Salaam,Ilala MC,Chanika,Daily Life,Non-Government
787,-6.5702518,39.0549893,Dar Es Salaam,Ilala MC,Buguruni,Decent,Non-Government
788,-6.9350339,39.1525953,Dar Es Salaam,Ilala MC,Kivule,Egalitarian,Non-Government
789,-7.0004473,39.09425375,Dar Es Salaam,Ilala MC,Msongola,Full Gospel,Non-Government
790,-6.5938742,39.0437145,Dar Es Salaam,Ilala MC,Zingiziwa,Gogo,Government
791,-6.5314045,39.0713456,Dar Es Salaam,Ilala MC,Pugu Station,Green Hill,Non-Government
792,-7.0145537,39.0523406,Dar Es Salaam,Ilala MC,Zingiziwa,Heroes,Non-Government
793,-6.5308561,39.0814789,Dar Es Salaam,Ilala MC,Gongolamboto,Highmount,Non-Government
794,-6.570134,39.0902011,Dar Es Salaam,Ilala MC,Msongola,Holly Family,Non-Government
795,-6.8761829,39.1745558,Dar Es Salaam,Ilala MC,Segerea,Holy Trinity,Non-Government
796,-6.5545921,39.0714023,Dar Es Salaam,Ilala MC,Pugu,Kabby,Non-Government
797,-6.5620465,39.1030335,Dar Es Salaam,Ilala MC,Kivule,Kananura,Non-Government
798,-7.0354874,39.0714151,Dar Es Salaam,Ilala MC,Msongola,Kiboga,Government
799,-6.5452386,39.0757167,Dar Es Salaam,Ilala MC,Majohe,Kichangani,Government
800,-6.5819401,39.0704003,Dar Es Salaam,Ilala MC,Buyuni,Kigezi,Government
801,-6.545261,39.06556027,Dar Es Salaam,Ilala MC,Pugu,Kigogo Fresh,Government
802,-6.86792145,39.19651242,Dar Es Salaam,Ilala MC,Ukonga,Kigolu,Non-Government
803,-6.5937925,39.0434983,Dar Es Salaam,Ilala MC,Zingiziwa,Kimwani,Government
804,-6.936186,39.116866,Dar Es Salaam,Ilala MC,Pugu,Kinyamwezi Mpya,Government
805,-7.01087461,39.3934942,Dar Es Salaam,Ilala MC,Msongola,Kitonga,Government
806,-6.5601839,39.1106553,Dar Es Salaam,Ilala MC,Kivule,Kivule,Government
807,-6.5952147,39.0752866,Dar Es Salaam,Ilala MC,Chanika,Kwila,Non-Government
808,-6.5916959,39.1050085,Dar Es Salaam,Ilala MC,Msongola,Ledactom Academy,Non-Government
809,-7.012543,39.0511942,Dar Es Salaam,Ilala MC,Zingiziwa,Lubakaya,Government
810,-7.0023961,39.0531954,Dar Es Salaam,Ilala MC,Chanika,Lukooni,Government
811,-7.0049593,39.0404947,Dar Es Salaam,Ilala MC,Zingiziwa,Mai,Non-Government
812,-6.5449051,39.075657,Dar Es Salaam,Ilala MC,Majohe,Majohe,Government
813,-6.5607067,39.0713926,Dar Es Salaam,Ilala MC,Pugu,Majority Vision,Non-Government
814,-7.0303235,39.0646491,Dar Es Salaam,Ilala MC,Msongola,Malen,Non-Government
815,-6.5441213,39.0912307,Dar Es Salaam,Ilala MC,Majohe,Marylinn,Non-Government
816,-6.581791,39.084227,Dar Es Salaam,Ilala MC,Msongola,Mbondole,Government
817,-6.5614702,39.0545204,Dar Es Salaam,Ilala MC,Buyuni,Mgeule,Government
818,-6.5627304,39.0842564,Dar Es Salaam,Ilala MC,Majohe,Mgikumbe,Non-Government
819,-6.5529101,39.0922383,Dar Es Salaam,Ilala MC,Majohe,Mji Mpya,Government
820,-6.5815667,39.1040304,Dar Es Salaam,Ilala MC,Msongola,Msongola,Government
821,-6.5717914,39.0603253,Dar Es Salaam,Ilala MC,Buyuni,Mtuki High Land,Non-Government
822,-7.0135357,39.0731963,Dar Es Salaam,Ilala MC,Msongola,Mvuti,Government
823,-6.6910055,39.2119666,Dar Es Salaam,Ilala MC,Mzinga,Mzinga,Non-Government
824,-6.919365,39.221018,Dar Es Salaam,Ilala MC,Mzinga,Nuru Angavu,Non-Government
825,-6.5748121,39.04276056,Dar Es Salaam,Ilala MC,Buyuni,Nyeburu,Government
826,-7.0136145,39.0256573,Dar Es Salaam,Ilala MC,Zingiziwa,Nzasa Ii,Government
827,-6.5355057,39.0733824,Dar Es Salaam,Ilala MC,Pugu,Pugu Bombani,Government
828,-6.5350512,39.0728426,Dar Es Salaam,Ilala MC,Pugu,Pugu Kajiungeni,Government
829,-6.5319876,39.0704521,Dar Es Salaam,Ilala MC,Pugu Station,Pugu Station,Government
830,-6.5314077,39.0713492,Dar Es Salaam,Ilala MC,Kipawa,Queens',Non-Government
831,-6.8220035,39.2765928,Dar Es Salaam,Ilala MC,Kariakoo,Quiblatain,Non-Government
832,-7.0041672,39.08292,Dar Es Salaam,Ilala MC,Msongola,Real Hope,Non-Government
833,-6.5301865,39.0818515,Dar Es Salaam,Ilala MC,Gongolamboto,Rugwa,Non-Government
834,-7.0052403,39.0628107,Dar Es Salaam,Ilala MC,Chanika,Sai,Non-Government
835,-6.8996166,39.1251656,Dar Es Salaam,Ilala MC,Pugu,Sakilight,Non-Government
836,-6.5604257,39.1104973,Dar Es Salaam,Ilala MC,Kivule,Serengeti,Government
837,-6.9231075,39.1034081,Dar Es Salaam,Ilala MC,Ukonga,St Theresa,Non-Government
838,-6.8472416,39.2209664,Dar Es Salaam,Ilala MC,Vingunguti,St. Joseph Benedict Cottolengo,Non-Government
839,-6.2324471,35.2094489,Dodoma,Bahi,Chali,Chali Igongo,Government
840,-7.0025061,39.0413849,Dar Es Salaam,Ilala MC,Zingiziwa,Thukad,Non-Government
841,-6.5853923,39.0521834,Dar Es Salaam,Ilala MC,Chanika,Tungini,Government
842,-6.5404521,39.0857012,Dar Es Salaam,Ilala MC,Majohe,Uamuzi,Government
843,-6.8324961,39.2603483,Dar Es Salaam,Ilala MC,Gongolamboto,Ulongoni,Government
844,-6.565237,39.0613803,Dar Es Salaam,Ilala MC,Buyuni,Upendo Montessorry,Non-Government
845,-6.5717914,39.0815132,Dar Es Salaam,Ilala MC,Majohe,Ursuline,Non-Government
846,-6.8754253,39.1456333,Dar Es Salaam,Ilala MC,Gongolamboto,Ushindi,Government
847,-6.5845506,39.0636871,Dar Es Salaam,Ilala MC,Chanika,Vikongoro,Government
848,-6.5604082,39.0741499,Dar Es Salaam,Ilala MC,Majohe,Viwege,Government
849,-7.0040687,39.0441943,Dar Es Salaam,Ilala MC,Zingiziwa,Winga,Non-Government
850,-6.5817028,39.1034759,Dar Es Salaam,Ilala MC,Msongola,Yangeyange,Government
851,-6.551389,39.0758491,Dar Es Salaam,Ilala MC,Majohe,Yellow Stone,Non-Government
852,-6.5942407,39.0741388,Dar Es Salaam,Ilala MC,Chanika,Yongwe,Government
853,-7.024246,39.0514448,Dar Es Salaam,Ilala MC,Zingiziwa,Zingiziwa,Government
854,-6.8791311,39.3444549,Dar Es Salaam,Kigamboni MC,Kibada,Algebra,Non-Government
855,-6.82679,39.311131,Dar Es Salaam,Kigamboni MC,Mjimwema,Amka,Non-Government
856,-6.8712533,39.3292975,Dar Es Salaam,Kigamboni MC,Vijibweni,Bethania,Non-Government
857,-7.032805,39.5311,Dar Es Salaam,Kigamboni MC,Kimbiji,Bohari,Government
858,-6.9551217,39.4484589,Dar Es Salaam,Kigamboni MC,Somangila,Brainstorm,Non-Government
859,-7.1282631,39.5229132,Dar Es Salaam,Kigamboni MC,Pemba Mnazi,Buyuni I,Government
860,-6.8539251,39.339986,Dar Es Salaam,Kigamboni MC,Vijibweni,Capacity Building,Non-Government
861,-6.9883516,39.40515,Dar Es Salaam,Kigamboni MC,Kisarawe II,Chekeni Mwasonga,Government
862,-6.9470187,39.4705503,Dar Es Salaam,Kigamboni MC,Somangila,Daarul-Arqam,Non-Government
863,-6.8760883,39.40575,Dar Es Salaam,Kigamboni MC,Somangila,Excel,Non-Government
864,-6.8365363,39.324775,Dar Es Salaam,Kigamboni MC,Tungi,Fray Luis Amigo,Non-Government
865,-6.8744861,39.4031018,Dar Es Salaam,Kigamboni MC,Somangila,Gezaulole,Government
866,-6.89781,39.42979,Dar Es Salaam,Kigamboni MC,Somangila,Glorious,Non-Government
867,-6.8696342,39.3405451,Dar Es Salaam,Kigamboni MC,Mjimwema,Goldland,Non-Government
868,-6.9382397,39.479328,Dar Es Salaam,Kigamboni MC,Somangila,Gomvu,Government
869,-6.8684142,39.345958,Dar Es Salaam,Kigamboni MC,Mjimwema,Grace,Non-Government
870,-6.959735,39.361418,Dar Es Salaam,Kigamboni MC,Kisarawe II,Greenland,Non-Government
871,-6.8667983,39.3656573,Dar Es Salaam,Kigamboni MC,Mjimwema,Hannah Bennie,Non-Government
872,-6.8933246,39.4806335,Dar Es Salaam,Kigamboni MC,Somangila,Heri Fanaka,Non-Government
873,-6.8508017,39.3160329,Dar Es Salaam,Kigamboni MC,Vijibweni,Holiness,Non-Government
874,-6.867727,39.3301821,Dar Es Salaam,Kigamboni MC,Vijibweni,Ivy First,Non-Government
875,-6.8973567,39.3378183,Dar Es Salaam,Kigamboni MC,Kibada,Kibada,Government
876,-6.8704858,39.3789024,Dar Es Salaam,Kigamboni MC,Mjimwema,Kibugumo,Government
877,-7.0520783,39.4429999,Dar Es Salaam,Kigamboni MC,Pemba Mnazi,Kichangani,Government
878,-6.8253833,39.3131783,Dar Es Salaam,Kigamboni MC,Kigamboni,Kigamboni,Government
879,-6.827202,39.306399,Dar Es Salaam,Kigamboni MC,Kigamboni,Kigamboni Islamic,Non-Government
880,-7.0102217,39.4838217,Dar Es Salaam,Kigamboni MC,Kimbiji,Kijaka,Government
881,-6.990495,39.527725,Dar Es Salaam,Kigamboni MC,Kimbiji,Kimbiji,Government
882,-6.9256019,39.3385592,Dar Es Salaam,Kigamboni MC,Kisarawe II,Kisarawe Ii,Government
883,-6.8522416,39.3233666,Dar Es Salaam,Kigamboni MC,Vijibweni,Kisiwani,Government
884,-6.825137,39.312368,Dar Es Salaam,Kigamboni MC,Kigamboni,Kivukoni,Government
885,-6.8360965,39.3210978,Dar Es Salaam,Kigamboni MC,Tungi,Mahenge,Non-Government
886,-6.8310733,39.3417366,Dar Es Salaam,Kigamboni MC,Tungi,Malaika,Non-Government
887,-6.8365282,39.3486468,Dar Es Salaam,Kigamboni MC,Mjimwema,Maweni,Government
888,-6.8933897,39.480356,Dar Es Salaam,Kigamboni MC,Somangila,Mbutu,Government
889,-6.9098357,39.4388895,Dar Es Salaam,Kigamboni MC,Somangila,Meka,Non-Government
890,-6.9909334,39.5289576,Dar Es Salaam,Kigamboni MC,Kimbiji,Mikenge,Government
891,-6.8804933,39.3394917,Dar Es Salaam,Kigamboni MC,Kibada,Mizimbini,Government
892,-6.8484228,39.3555729,Dar Es Salaam,Kigamboni MC,Mjimwema,Mjimwema,Government
893,-7.0333987,39.4141995,Dar Es Salaam,Kigamboni MC,Kisarawe II,Mkamba,Government
894,-7.0704777,39.5255777,Dar Es Salaam,Kigamboni MC,Pemba Mnazi,Mkundi,Government
895,-7.0073615,39.4701056,Dar Es Salaam,Kigamboni MC,Pemba Mnazi,Muhimbili Ii,Government
896,-6.8844254,39.4356654,Dar Es Salaam,Kigamboni MC,Somangila,Mwongozo,Government
897,-7.1596767,39.508195,Dar Es Salaam,Kigamboni MC,Pemba Mnazi,Pemba Mnazi,Government
898,-6.8236916,39.3156783,Dar Es Salaam,Kigamboni MC,Kigamboni,Rahaleo,Government
899,-6.9637216,39.452605,Dar Es Salaam,Kigamboni MC,Somangila,Santa Lucas,Non-Government
900,-6.897816,39.340565,Dar Es Salaam,Kigamboni MC,Kibada,St Joseph The Worker,Non-Government
901,-7.0219439,39.4286818,Dar Es Salaam,Kigamboni MC,Pemba Mnazi,Tundwi Songani,Government
902,-6.8399936,39.3186354,Dar Es Salaam,Kigamboni MC,Tungi,Tungi,Government
903,-6.8268866,39.3110583,Dar Es Salaam,Kigamboni MC,Kigamboni,Ufukoni,Government
904,-6.8621463,39.3447791,Dar Es Salaam,Kigamboni MC,Mjimwema,Ungindoni,Government
905,-6.8566042,39.3096632,Dar Es Salaam,Kigamboni MC,Vijibweni,Vijibweni,Government
906,-6.9430116,39.4320416,Dar Es Salaam,Kigamboni MC,Kisarawe II,Vumilia Ukooni,Government
907,-7.1058314,39.5276601,Dar Es Salaam,Kigamboni MC,Pemba Mnazi,Yale Yale Puna,Government
908,-6.6900786,39.0919096,Dar Es Salaam,Kinondoni MC,Bunju,Abel Memorial,Non-Government
909,-6.802972,39.257337,Dar Es Salaam,Kinondoni MC,Magomeni,Ali Hassan Mwinyi,Government
910,-6.7441556,39.2368813,Dar Es Salaam,Kinondoni MC,Kawe,Ali Hassan Mwinyi Elite,Non-Government
911,-6.802274,39.287294,Dar Es Salaam,Kinondoni MC,Msasani,Al-Irshaad,Non-Government
912,-6.802971,39.257337,Dar Es Salaam,Kinondoni MC,Bunju,Ally Hapi,Government
913,-6.793383,39.2624974,Dar Es Salaam,Kinondoni MC,Mwananyamala,Answar,Non-Government
914,-6.80217157,39.2085527,Dar Es Salaam,Kinondoni MC,Wazo,Atlas Madale,Non-Government
915,-6.661973,39.205801,Dar Es Salaam,Kinondoni MC,Kunduchi,Bahari,Non-Government
916,-6.7207152,39.225566,Dar Es Salaam,Kinondoni MC,Kawe,Bajeviro,Non-Government
917,-6.690522,39.177764,Dar Es Salaam,Kinondoni MC,Wazo,Benaco,Government
918,-6.6334833,39.1538851,Dar Es Salaam,Kinondoni MC,Bunju,Boko,Government
919,-6.6320011,39.1336921,Dar Es Salaam,Kinondoni MC,Bunju,Boko Nhc,Government
920,-6.7772096,39.2786791,Dar Es Salaam,Kinondoni MC,Msasani,Bongoyo,Government
921,-6.792354,39.2083284,Dar Es Salaam,Kinondoni MC,Kunduchi,Bright Hope,Non-Government
922,-6.619822,39.108828,Dar Es Salaam,Kinondoni MC,Bunju,Bunju 'A',Government
923,-6.633221,39.115855,Dar Es Salaam,Kinondoni MC,Mabwepande,Bunju B,Government
924,-6.6829245,39.1444817,Dar Es Salaam,Kinondoni MC,Wazo,C.W Kissaro,Non-Government
925,-6.65533,39.184338,Dar Es Salaam,Kinondoni MC,Kunduchi,Canosa,Non-Government
926,-6.7640866,39.1897699,Dar Es Salaam,Kinondoni MC,Makongo,Changanyikeni,Government
927,-6.7586992,39.2142391,Dar Es Salaam,Kinondoni MC,Makongo,City Academy,Non-Government
928,-6.811502,39.278958,Dar Es Salaam,Kinondoni MC,Bunju,Daystar,Non-Government
929,-6.6096099,39.0968695,Dar Es Salaam,Kinondoni MC,Mabwepande,Debugene,Non-Government
930,-6.815845,39.258722,Dar Es Salaam,Kinondoni MC,Kigogo,Deep Sea,Non-Government
931,-6.772795,39.266496,Dar Es Salaam,Kinondoni MC,Msasani,Drive Inn,Non-Government
932,-6.750405,39.239248,Dar Es Salaam,Kinondoni MC,Mikocheni,East Africa,Non-Government
933,-6.645746,39.176311,Dar Es Salaam,Kinondoni MC,Kunduchi,Education Plus,Non-Government
934,-6.7076566,39.1449116,Dar Es Salaam,Kinondoni MC,Wazo,Elesia Christabel,Non-Government
935,-6.6163108,39.1141986,Dar Es Salaam,Kinondoni MC,Bunju,Faith,Non-Government
936,-6.7356588,39.2272317,Dar Es Salaam,Kinondoni MC,Kawe,Feza,Non-Government
937,-6.816479,39.256849,Dar Es Salaam,Kinondoni MC,Kigogo,Gilmanrutihinda,Government
938,-6.810984,39.280642,Dar Es Salaam,Kinondoni MC,Mabwepande,Godeni,Non-Government
939,-6.819709,39.235109,Dar Es Salaam,Kinondoni MC,Kigogo,Gonzaga,Non-Government
940,-6.756116,39.279779,Dar Es Salaam,Kinondoni MC,Msasani,Good Samaritan,Non-Government
941,-6.6203745,39.0611303,Dar Es Salaam,Kinondoni MC,Bunju,Gosheni,Non-Government
942,-6.697592,39.197598,Dar Es Salaam,Kinondoni MC,Wazo,Green Acres,Non-Government
943,-6.796615,39.26988,Dar Es Salaam,Kinondoni MC,Hananasif,Hananasif,Government
944,-6.8000824,39.2604392,Dar Es Salaam,Kinondoni MC,Magomeni,Hazina,Non-Government
945,-6.796766,39.241468,Dar Es Salaam,Kinondoni MC,Tandale,Hekima,Government
946,-6.5811427,39.1271642,Dar Es Salaam,Kinondoni MC,Mbweni,Hope & Joy,Non-Government
947,-6.70131,39.2208918,Dar Es Salaam,Kinondoni MC,Kunduchi,Jangwani Beach,Government
948,-6.735662,39.227233,Dar Es Salaam,Kinondoni MC,Kawe,Kawe A,Government
949,-6.73454,39.226969,Dar Es Salaam,Kinondoni MC,Kawe,Kawe B,Government
950,-6.699671,39.185057,Dar Es Salaam,Kinondoni MC,Wazo,Keland,Non-Government
951,-6.618733,39.109123,Dar Es Salaam,Kinondoni MC,Bunju,Kheri Missinga,Government
952,-6.817869,39.249099,Dar Es Salaam,Kinondoni MC,Kigogo,Kigogo,Government
953,-6.778611,39.240311,Dar Es Salaam,Kinondoni MC,Kijitonyama,Kijitonyama,Government
954,-6.784779,39.237288,Dar Es Salaam,Kinondoni MC,Kijitonyama,Kijitonyama Kisiwani,Government
955,-6.727034,39.203553,Dar Es Salaam,Kinondoni MC,Mbezi Juu,Kilimani Eng,Non-Government
956,-6.677628,39.176105,Dar Es Salaam,Kinondoni MC,Wazo,Kingdom,Non-Government
957,-6.701344,39.134298,Dar Es Salaam,Kinondoni MC,Wazo,Kisauke,Government
958,-6.6316169,39.188174,Dar Es Salaam,Kinondoni MC,Mbweni,Kiumbageni,Government
959,-6.779975,39.249796,Dar Es Salaam,Kinondoni MC,Kinondoni,Kumbukumbu,Government
960,-6.664216,39.191106,Dar Es Salaam,Kinondoni MC,Kunduchi,Kunduchi,Government
961,-6.6734264,39.1726836,Dar Es Salaam,Kinondoni MC,Wazo,Lachish,Non-Government
962,-6.710732,39.221448,Dar Es Salaam,Kinondoni MC,Kawe,Libermann,Non-Government
963,-6.6853247,39.1495444,Dar Es Salaam,Kinondoni MC,Wazo,Livingstone,Non-Government
964,-6.621667,39.154998,Dar Es Salaam,Kinondoni MC,Bunju,Locee,Non-Government
965,-6.7369787,39.2088064,Dar Es Salaam,Kinondoni MC,Makongo,Londa,Government
966,-6.750084,39.226953,Dar Es Salaam,Kinondoni MC,Kawe,Lugalo,Government
967,-6.6656614,39.1549032,Dar Es Salaam,Kinondoni MC,Wazo,Maarifa Islamic,Non-Government
968,-6.6121246,39.0992313,Dar Es Salaam,Kinondoni MC,Mabwepande,Mabwepande,Government
969,-6.802728,39.256706,Dar Es Salaam,Kinondoni MC,Magomeni,Magomeni,Government
970,-6.696699,39.225283,Dar Es Salaam,Kinondoni MC,Kunduchi,Makini,Non-Government
971,-6.759927,39.197569,Dar Es Salaam,Kinondoni MC,Makongo,Makongo,Government
972,-6.780734,39.249077,Dar Es Salaam,Kinondoni MC,Makumbusho,Makumbusho,Government
973,-6.7758583,39.2303116,Dar Es Salaam,Kinondoni MC,Kijitonyama,Mapambano,Government
974,-6.816982,39.258167,Dar Es Salaam,Kinondoni MC,Kigogo,Mapinduzi,Government
975,-6.7333991,39.2266721,Dar Es Salaam,Kinondoni MC,Kawe,Mbezi Beach,Government
976,-6.7149271,39.2025971,Dar Es Salaam,Kinondoni MC,Mbezi Juu,Mbezi Juu,Government
977,-6.8239825,39.1335549,Dar Es Salaam,Kinondoni MC,Mbezi Juu,Mbezi Ndumbwi,Government
978,-6.694624,39.106546,Dar Es Salaam,Kinondoni MC,Mabwepande,Mbopo,Government
979,-6.7801512,39.2744654,Dar Es Salaam,Kinondoni MC,Msasani,Mbuyuni,Government
980,-6.641178,39.194267,Dar Es Salaam,Kinondoni MC,Mbweni,Mbweni,Government
981,-6.791265,39.2506216,Dar Es Salaam,Kinondoni MC,Makumbusho,Mchangani,Government
982,-6.770296,39.256136,Dar Es Salaam,Kinondoni MC,Mikocheni,Mikocheni,Government
983,-6.757466,39.244444,Dar Es Salaam,Kinondoni MC,Mikocheni,Mikocheni Islamic,Non-Government
984,-6.811988,39.258394,Dar Es Salaam,Kinondoni MC,Mzimuni,Mikumi,Government
985,-6.6442735,39.1976099,Dar Es Salaam,Kinondoni MC,Kunduchi,Milestones,Non-Government
986,-6.7867238,39.2501786,Dar Es Salaam,Kinondoni MC,Makumbusho,Minazini,Government
987,-6.753994,39.229329,Dar Es Salaam,Kinondoni MC,Kawe,Mirambo,Government
988,-6.691135,39.14966167,Dar Es Salaam,Kinondoni MC,Wazo,Mivumoni,Government
989,-6.926967,39.157046,Dar Es Salaam,Kinondoni MC,Mabwepande,Mji Mpya,Government
990,-6.7961242,39.2699723,Dar Es Salaam,Kinondoni MC,Hananasif,Mkunguni,Government
991,-6.8172864,39.249755,Dar Es Salaam,Kinondoni MC,Kigogo,Mkwawa,Government
992,-6.607507,39.1125143,Dar Es Salaam,Kinondoni MC,Bunju,Moga,Non-Government
993,-6.901727,39.15831,Dar Es Salaam,Kinondoni MC,Wazo,Mother Of Mercy,Non-Government
994,-6.7259832,39.2062876,Dar Es Salaam,Kinondoni MC,Mbezi Juu,Mount Kibo,Non-Government
995,-6.6294587,39.1211306,Dar Es Salaam,Kinondoni MC,Bunju,Mount Sinai,Non-Government
996,-6.76181,39.26788,Dar Es Salaam,Kinondoni MC,Msasani,Msasani A,Government
997,-6.76201,39.26861,Dar Es Salaam,Kinondoni MC,Msasani,Msasani B,Government
998,-6.7713031,39.2788951,Dar Es Salaam,Kinondoni MC,Msasani,Msasani Islamic,Non-Government
999,-6.7881947,39.2610999,Dar Es Salaam,Kinondoni MC,Mwananyamala,Msisiri,Government
1000,-6.7838116,39.2550783,Dar Es Salaam,Kinondoni MC,Mwananyamala,Msisiri 'B',Government
1001,-6.6203274,39.1437002,Dar Es Salaam,Kinondoni MC,Mbweni,Mt. Everest,Non-Government
1002,-6.633427,39.152767,Dar Es Salaam,Kinondoni MC,Bunju,Mtambani,Government
1003,-6.787458,39.263828,Dar Es Salaam,Kinondoni MC,Kinondoni,Mtambani Islamic,Non-Government
1004,-6.6726616,39.2088916,Dar Es Salaam,Kinondoni MC,Kunduchi,Mtongani,Government
1005,-6.789872,39.235196,Dar Es Salaam,Kinondoni MC,Tandale,Muhalitan,Government
1006,-6.786135,39.250213,Dar Es Salaam,Kinondoni MC,Makumbusho,Mwananyamala 'B',Government
1007,-6.790915,39.250863,Dar Es Salaam,Kinondoni MC,Makumbusho,Mwananyamala Kisiwani,Government
1008,-6.7858321,39.236759,Dar Es Salaam,Kinondoni MC,Kijitonyama,Mwangaza,Government
1009,-6.769582,39.233492,Dar Es Salaam,Kinondoni MC,Kijitonyama,Mwenge,Government
1010,-6.7244771,39.2221088,Dar Es Salaam,Kinondoni MC,Kawe,Mwl. J. K. Nyerere,Non-Government
1011,-6.8113561,39.2554836,Dar Es Salaam,Kinondoni MC,Ndugumbi,Mwl. Nyerere,Government
1012,-6.7797775,39.262062,Dar Es Salaam,Kinondoni MC,Mwananyamala,Mwongozo,Government
1013,-6.811397,39.257474,Dar Es Salaam,Kinondoni MC,Mzimuni,Mzimuni,Government
1014,-6.7579854,39.2094835,Dar Es Salaam,Kinondoni MC,Makongo,Naitedam,Non-Government
1015,-6.6685966,39.1266483,Dar Es Salaam,Kinondoni MC,Wazo,Nakasangwe,Government
1016,-6.803054,39.250249,Dar Es Salaam,Kinondoni MC,Ndugumbi,Ndugumbi,Government
1017,-6.6121488,39.1371483,Dar Es Salaam,Kinondoni MC,Mbweni,New Era,Non-Government
1018,-6.621002,39.114609,Dar Es Salaam,Kinondoni MC,Bunju,New Hazina,Non-Government
1019,-6.632659,39.132874,Dar Es Salaam,Kinondoni MC,Wazo,Nuru Njema,Non-Government
1020,-6.777006,39.278128,Dar Es Salaam,Kinondoni MC,Msasani,Oysterbay,Government
1021,-6.751534,39.276667,Dar Es Salaam,Kinondoni MC,Msasani,Peninsula,Non-Government
1022,-6.664235,39.190353,Dar Es Salaam,Kinondoni MC,Kunduchi,Pius Msekwa,Government
1023,-6.62789211,39.1258699,Dar Es Salaam,Kinondoni MC,Bunju,Prestige,Non-Government
1024,-6.672669,39.185574,Dar Es Salaam,Kinondoni MC,Kunduchi,Princess Gate,Non-Government
1025,-6.658204,39.196623,Dar Es Salaam,Kinondoni MC,Kunduchi,Pwani,Government
1026,-6.690273,39.104197,Dar Es Salaam,Kinondoni MC,Mabwepande,Redave,Non-Government
1027,-6.8100156,39.1011307,Dar Es Salaam,Kinondoni MC,Kawe,Rightway,Non-Government
1028,-6.694632,39.218642,Dar Es Salaam,Kinondoni MC,Kunduchi,Royal Elite,Non-Government
1029,-6.688077,39.192888,Dar Es Salaam,Kinondoni MC,Wazo,Salasala,Government
1030,-6.8109847,39.2806425,Dar Es Salaam,Kinondoni MC,Mzimuni,Shekhat Hissa,Non-Government
1031,-6.7739399,39.2309814,Dar Es Salaam,Kinondoni MC,Kijitonyama,Shekilango,Government
1032,-6.772214,39.247674,Dar Es Salaam,Kinondoni MC,Mikocheni,Shree Hindu Mandal,Non-Government
1033,-6.6332208,39.1158553,Dar Es Salaam,Kinondoni MC,Bunju,Siya Modern,Non-Government
1034,-6.6508772,39.1759862,Dar Es Salaam,Kinondoni MC,Kunduchi,Sky,Non-Government
1035,-6.710251,39.217471,Dar Es Salaam,Kinondoni MC,Kawe,St. Aloysius,Non-Government
1036,-6.7510508,39.1852257,Dar Es Salaam,Kinondoni MC,Makongo,St. Columbas,Non-Government
1037,-6.7672252,39.2532142,Dar Es Salaam,Kinondoni MC,Mikocheni,St. Florence,Non-Government
1038,-6.6963867,39.2070484,Dar Es Salaam,Kinondoni MC,Kunduchi,St. Joseph,Non-Government
1039,-6.6302158,39.1377075,Dar Es Salaam,Kinondoni MC,Bunju,St. Maria Salome,Non-Government
1040,-6.721155,39.204763,Dar Es Salaam,Kinondoni MC,Mbezi Juu,St. Marys,Non-Government
1041,-6.653532,39.201216,Dar Es Salaam,Kinondoni MC,Kunduchi,St. Thomas,Non-Government
1042,-6.785117,39.270895,Dar Es Salaam,Kinondoni MC,Kinondoni,Sunray,Non-Government
1043,-6.776018,39.260641,Dar Es Salaam,Kinondoni MC,Mikocheni,Sunrise,Non-Government
1044,-6.796882,39.243026,Dar Es Salaam,Kinondoni MC,Tandale,Tandale,Government
1045,-6.7913219,39.2365826,Dar Es Salaam,Kinondoni MC,Tandale,Tandale Magh.,Government
1046,-6.6054613,39.1061132,Dar Es Salaam,Kinondoni MC,Mabwepande,Tej School,Non-Government
1047,-6.7410171,39.2256971,Dar Es Salaam,Kinondoni MC,Kawe,Tumaini,Government
1048,-6.628134,39.081859,Dar Es Salaam,Kinondoni MC,Mabwepande,Tunawapenda Watoto,Non-Government
1049,-6.802448,39.255482,Dar Es Salaam,Kinondoni MC,Ndugumbi,Turiani,Government
1050,-6.7334166,39.2268533,Dar Es Salaam,Kinondoni MC,Kawe,Ukwamani,Government
1051,-6.632418,39.179138,Dar Es Salaam,Kinondoni MC,Kunduchi,Ununio,Government
1052,-6.754711,39.239986,Dar Es Salaam,Kinondoni MC,Mikocheni,Ushindi,Government
1053,-6.700744,39.126691,Dar Es Salaam,Kinondoni MC,Wazo,Uwata Madale,Non-Government
1054,-6.7210001,39.2130637,Dar Es Salaam,Kinondoni MC,Kawe,Valentine,Non-Government
1055,-6.780049,39.249955,Dar Es Salaam,Kinondoni MC,Makumbusho,Victoria,Government
1056,-6.674453,39.169812,Dar Es Salaam,Kinondoni MC,Wazo,Wazo Hill,Government
1057,-6.8675441,39.2602931,Dar Es Salaam,Temeke MC,Tandika,A.H. Mwinyi,Government
1058,-6.937277,39.281668,Dar Es Salaam,Temeke MC,Toangoma,Agape Mbagala,Non-Government
1059,-6.8606516,39.2667466,Dar Es Salaam,Temeke MC,Miburani,Al Qaadiriya,Non-Government
1060,-6.855532,39.256358,Dar Es Salaam,Temeke MC,Temeke,Alhikma,Non-Government
1061,-6.8915461,39.2291972,Dar Es Salaam,Temeke MC,Buza,Amani,Government
1062,-6.87800071,39.2896482,Dar Es Salaam,Temeke MC,Kijichi,Anlex,Non-Government
1063,-6.8825496,39.2508,Dar Es Salaam,Temeke MC,Makangarawe,Annette B,Non-Government
1064,-6.9452833,39.2943883,Dar Es Salaam,Temeke MC,Toangoma,Asswiddiq,Non-Government
1065,-6.8764567,39.2609733,Dar Es Salaam,Temeke MC,Azimio,Azimio,Government
1066,-6.8518536,39.2605213,Dar Es Salaam,Temeke MC,Temeke,Bahati,Government
1067,-6.8481683,39.2797372,Dar Es Salaam,Temeke MC,Miburani,Barracks,Government
1068,-6.8639231,39.2594771,Dar Es Salaam,Temeke MC,Tandika,Bilal Comprehensive,Non-Government
1069,-6.8724923,39.2739153,Dar Es Salaam,Temeke MC,Mtoni,Bokorani,Government
1070,-6.8916601,39.2222311,Dar Es Salaam,Temeke MC,Yombo vituka,Braintrust,Non-Government
1071,-6.8912883,39.2300106,Dar Es Salaam,Temeke MC,Buza,Buza,Government
1072,-6.8863482,39.2821952,Dar Es Salaam,Temeke MC,Kijichi,Bwawani,Government
1073,-6.9519071,39.2274801,Dar Es Salaam,Temeke MC,Chamazi,Chamazi,Government
1074,-6.9472203,39.2167961,Dar Es Salaam,Temeke MC,Chamazi,Chamazi Islamic,Non-Government
1075,-6.8491681,39.2724182,Dar Es Salaam,Temeke MC,Miburani,Chang'Ombe,Government
1076,-6.9236581,39.2540511,Dar Es Salaam,Temeke MC,Kilungule,Charambe,Government
1077,-6.9728321,39.2098901,Dar Es Salaam,Temeke MC,Chamazi,Che-Mbande Islamic,Non-Government
1078,-6.9237061,39.2541011,Dar Es Salaam,Temeke MC,Kilungule,Chemchem,Government
1079,-6.9364331,39.2772432,Dar Es Salaam,Temeke MC,Toangoma,Complex,Non-Government
1080,-6.913709,39.34021,Dar Es Salaam,Temeke MC,Toangoma,Cornerstone,Non-Government
1081,-6.8757283,39.2928033,Dar Es Salaam,Temeke MC,Kijichi,Doris,Non-Government
1082,-6.9324761,39.2368221,Dar Es Salaam,Temeke MC,Chamazi,Dynamic,Non-Government
1083,-6.9366729,39.2415739,Dar Es Salaam,Temeke MC,Mianzini,Epiphany,Non-Government
1084,-6.95831,39.23509,Dar Es Salaam,Temeke MC,Chamazi,Fahari,Non-Government
1085,-6.9438182,39.2576908,Dar Es Salaam,Temeke MC,Mianzini,Faraja,Government
1086,-6.8607051,39.25658,Dar Es Salaam,Temeke MC,Tandika,Goodshepherd,Non-Government
1087,-6.8976601,39.2669581,Dar Es Salaam,Temeke MC,Mbagala,Great Vision,Non-Government
1088,-6.945063,39.3244911,Dar Es Salaam,Temeke MC,Mianzini,Hekima,Non-Government
1089,-6.8805357,39.2901824,Dar Es Salaam,Temeke MC,Kijichi,Holy Cross,Non-Government
1090,-6.9434643,39.2466197,Dar Es Salaam,Temeke MC,Mianzini,Holy Union Sister,Non-Government
1091,-6.8547267,39.2772987,Dar Es Salaam,Temeke MC,Miburani,Jeshi La Wokovu,Government
1092,-6.875135,39.250614,Dar Es Salaam,Temeke MC,Makangarawe,Jitihada,Government
1093,-6.9349101,39.3308571,Dar Es Salaam,Temeke MC,Toangoma,Joyland,Non-Government
1094,-6.8989251,39.2545722,Dar Es Salaam,Temeke MC,Kiburugwa,Juhudi,Government
1095,-6.9032833,39.2949436,Dar Es Salaam,Temeke MC,Kijichi,Kamo,Non-Government
1096,-6.88798,39.2528444,Dar Es Salaam,Temeke MC,Buza,Karume,Government
1097,-6.9370874,39.3460049,Dar Es Salaam,Temeke MC,Toangoma,Katavi,Non-Government
1098,-6.9750271,39.2043721,Dar Es Salaam,Temeke MC,Chamazi,Kazaura,Non-Government
1099,-6.8350294,39.2719481,Dar Es Salaam,Temeke MC,Keko,Keko Magurumbasi,Government
1100,-6.8360451,39.2753691,Dar Es Salaam,Temeke MC,Keko,Keko Mwanga,Government
1101,-6.8531113,39.2674312,Dar Es Salaam,Temeke MC,Miburani,Kibasila,Government
1102,-6.9119712,39.2749262,Dar Es Salaam,Temeke MC,Mbagala Kuu,Kibondemaji,Government
1103,-6.9110451,39.2528514,Dar Es Salaam,Temeke MC,Kiburugwa,Kiburugwa,Government
1104,-6.87518,39.245859,Dar Es Salaam,Temeke MC,Kilakala,Kigunga,Government
1105,-6.8749841,39.2459223,Dar Es Salaam,Temeke MC,Kilakala,Kilakala,Government
1106,-6.9244833,39.2577355,Dar Es Salaam,Temeke MC,Charambe,Kilamba,Government
1107,-6.872559,39.256776,Dar Es Salaam,Temeke MC,Tandika,Kilimahewa,Government
1108,-6.9117792,39.2534193,Dar Es Salaam,Temeke MC,Kiburugwa,Kingugi,Government
1109,-6.854864,39.284199,Dar Es Salaam,Temeke MC,Kurasini,Kiungani,Government
1110,-6.9023791,39.2662191,Dar Es Salaam,Temeke MC,Mbagala,Kizinga,Government
1111,-6.9118701,39.2755331,Dar Es Salaam,Temeke MC,Mbagala Kuu,Kizuiani,Government
1112,-6.9441071,39.2805672,Dar Es Salaam,Temeke MC,Toangoma,Kongowe,Government
1113,-6.9390006,39.2770243,Dar Es Salaam,Temeke MC,Toangoma,Kongowe Islamic,Non-Government
1114,-6.9070912,39.2794591,Dar Es Salaam,Temeke MC,Mbagala Kuu,Lassana,Non-Government
1115,-6.8582432,39.2690431,Dar Es Salaam,Temeke MC,Miburani,Likwati,Government
1116,-6.9585691,39.2215071,Dar Es Salaam,Temeke MC,Chamazi,Lilies,Non-Government
1117,-6.8640333,39.2624216,Dar Es Salaam,Temeke MC,Temeke,Lioness Miburani,Government
1118,-6.8619621,39.2557661,Dar Es Salaam,Temeke MC,Tandika,Mabatini,Government
1119,-6.8555161,39.2593731,Dar Es Salaam,Temeke MC,Temeke,Madenge,Government
1120,-6.9030421,39.2861081,Dar Es Salaam,Temeke MC,Mbagala Kuu,Maendeleo,Government
1121,-6.937702,39.247641,Dar Es Salaam,Temeke MC,Mianzini,Majimatitu,Government
1122,-6.8827366,39.2354683,Dar Es Salaam,Temeke MC,Yombo vituka,Mamaisara,Non-Government
1123,-6.9304471,39.2438823,Dar Es Salaam,Temeke MC,Kilungule,Marten Lumbanga,Government
1124,-6.8575851,39.2481691,Dar Es Salaam,Temeke MC,Sandali,Mary Our Help,Non-Government
1125,-6.9419791,39.3326311,Dar Es Salaam,Temeke MC,Toangoma,Marydestiny,Non-Government
1126,-6.9029354,39.2905458,Dar Es Salaam,Temeke MC,Kijichi,Mater Dei,Non-Government
1127,-6.9035471,39.2647121,Dar Es Salaam,Temeke MC,Mbagala,Mbagala,Government
1128,-6.9037201,39.2649681,Dar Es Salaam,Temeke MC,Mbagala,Mbagala Annex,Government
1129,-6.9026499,39.2848551,Dar Es Salaam,Temeke MC,Mbagala Kuu,Mbagala Kuu,Government
1130,-6.9800351,39.2124142,Dar Es Salaam,Temeke MC,Chamazi,Mbande,Government
1131,-6.9170893,39.2701765,Dar Es Salaam,Temeke MC,Kibondemaji,Mchikichini,Government
1132,-6.8923174,39.3082189,Dar Es Salaam,Temeke MC,Kijichi,Mgeninani,Government
1133,-6.8484364,39.2754378,Dar Es Salaam,Temeke MC,Miburani,Mgulani,Government
1134,-6.9407999,39.2660216,Dar Es Salaam,Temeke MC,Mianzini,Mianzini,Government
1135,-6.9219032,39.3408123,Dar Es Salaam,Temeke MC,Toangoma,Mikwambe,Government
1136,-6.840133,39.2899,Dar Es Salaam,Temeke MC,Kurasini,Mivinjeni,Government
1137,-6.8674012,39.2670714,Dar Es Salaam,Temeke MC,Azimio,Mjimpya,Government
1138,-6.931911,39.2329,Dar Es Salaam,Temeke MC,Chamazi,Mkombozi Montessori,Non-Government
1139,-6.8742703,39.2259702,Dar Es Salaam,Temeke MC,Yombo vituka,Montfort,Non-Government
1140,-6.8784271,39.2642451,Dar Es Salaam,Temeke MC,Azimio,Moringe,Government
1141,-6.8768621,39.2270781,Dar Es Salaam,Temeke MC,Yombo vituka,Moses,Non-Government
1142,-6.9522221,39.2280841,Dar Es Salaam,Temeke MC,Chamazi,Msufini,Government
1143,-6.8723727,39.2745853,Dar Es Salaam,Temeke MC,Mtoni,Mtoni,Government
1144,-6.8870183,39.2809232,Dar Es Salaam,Temeke MC,Kijichi,Mtoni Kijichi,Government
1145,-6.8676214,39.2809291,Dar Es Salaam,Temeke MC,Mtoni,Mtoni Sabasaba,Government
1146,-6.878181,39.246275,Dar Es Salaam,Temeke MC,Kilakala,Musitambi,Non-Government
1147,-6.8761244,39.2609701,Dar Es Salaam,Temeke MC,Azimio,Mwangaza,Government
1148,-6.9400766,39.2566651,Dar Es Salaam,Temeke MC,Mianzini,Mwangaza Eng. Med.,Non-Government
1149,-6.9426555,39.2807755,Dar Es Salaam,Temeke MC,Toangoma,Mzinga,Government
1150,-6.9249381,39.2534111,Dar Es Salaam,Temeke MC,Kilungule,Nzasa,Government
1151,-6.8841516,39.2461983,Dar Es Salaam,Temeke MC,Makangarawe,Oasis,Non-Government
1152,-6.9433283,39.3514033,Dar Es Salaam,Temeke MC,Toangoma,Ocean View,Non-Government
1153,-6.9363201,39.2160111,Dar Es Salaam,Temeke MC,Chamazi,Pacific,Non-Government
1154,-6.8639231,39.281668,Dar Es Salaam,Temeke MC,Toangoma,Post Modern,Non-Government
1155,-6.9373374,39.313377,Dar Es Salaam,Temeke MC,Toangoma,Rainbow,Non-Government
1156,-6.9211101,39.2719871,Dar Es Salaam,Temeke MC,Kibondemaji,Rangitatu,Government
1157,-6.9895202,39.2176881,Dar Es Salaam,Temeke MC,Chamazi,Rufu,Government
1158,-6.8548233,39.2588217,Dar Es Salaam,Temeke MC,Temeke,Ruvuma,Government
1159,-6.9291743,39.2380534,Dar Es Salaam,Temeke MC,Chamazi,Ruwija,Non-Government
1160,-6.8894231,39.2252322,Dar Es Salaam,Temeke MC,Buza,Sacred Heart,Non-Government
1161,-6.9223536,39.23289312,Dar Es Salaam,Temeke MC,Chamazi,Saku,Government
1162,-6.9557661,39.2261982,Dar Es Salaam,Temeke MC,Chamazi,Salaam,Non-Government
1163,-6.8560616,39.2447736,Dar Es Salaam,Temeke MC,Sandali,Sandali,Government
1164,-6.9508142,39.2160421,Dar Es Salaam,Temeke MC,Chamazi,Shalom,Non-Government
1165,-6.8780471,39.2643121,Dar Es Salaam,Temeke MC,Azimio,Sokoine,Government
1166,-6.9270356,39.2720266,Dar Es Salaam,Temeke MC,Kibondemaji,St Mary'S,Non-Government
1167,-6.8523961,39.2640021,Dar Es Salaam,Temeke MC,Chang'ombe,St Therese,Non-Government
1168,-6.896335,39.2405317,Dar Es Salaam,Temeke MC,Buza,Stabella,Non-Government
1169,-6.8478653,39.2753412,Dar Es Salaam,Temeke MC,Miburani,Taifa,Government
1170,-6.8670501,39.2603771,Dar Es Salaam,Temeke MC,Tandika,Tandika,Government
1171,-6.9261469,39.3044677,Dar Es Salaam,Temeke MC,Toangoma,Taneem,Non-Government
1172,-6.851533,39.260594,Dar Es Salaam,Temeke MC,Temeke,Temeke,Government
1173,-6.9199441,39.3307541,Dar Es Salaam,Temeke MC,Toangoma,Temeke Sda,Non-Government
1174,-6.935182,39.310944,Dar Es Salaam,Temeke MC,Toangoma,Toangoma,Government
1175,-6.8783762,39.2636231,Dar Es Salaam,Temeke MC,Azimio,Twiga,Government
1176,-6.8746033,39.2299733,Dar Es Salaam,Temeke MC,Yombo vituka,Ukombozi,Government
1177,-6.8643411,39.262431,Dar Es Salaam,Temeke MC,Temeke,Umoja,Government
1178,-6.89330501,39.2035231,Dar Es Salaam,Temeke MC,Chamazi,Unique Academy,Non-Government
1179,-6.9811881,39.2189771,Dar Es Salaam,Temeke MC,Chamazi,Unity,Non-Government
1180,-6.8472263,39.2654093,Dar Es Salaam,Temeke MC,Chang'ombe,Unubini,Government
1181,-6.9439521,39.2812123,Dar Es Salaam,Temeke MC,Toangoma,Upendo,Government
1182,-6.87636771,39.22202973,Dar Es Salaam,Temeke MC,Yombo vituka,Uwanja Wa Ndege,Government
1183,-6.8552331,39.2449641,Dar Es Salaam,Temeke MC,Sandali,Veterinary,Government
1184,-6.8585462,39.2691331,Dar Es Salaam,Temeke MC,Miburani,Wailes,Government
1185,-6.8477885,39.2711144,Dar Es Salaam,Temeke MC,Miburani,Yemeni,Non-Government
1186,-6.8745361,39.2506911,Dar Es Salaam,Temeke MC,Makangarawe,Yombo Dovya,Government
1187,-6.8741431,39.2293921,Dar Es Salaam,Temeke MC,Yombo vituka,Yombo Vituka,Government
1188,-6.862798,39.255583,Dar Es Salaam,Temeke MC,Tandika,Yusuph R. Makamba,Government
1189,-6.8168741,39.2473321,Dar Es Salaam,Ubungo MC,Mburahati,Ali Hassan Mwinyi Islamic,Non-Government
1190,-6.787898,39.107644,Dar Es Salaam,Ubungo MC,Msigani,Allience,Non-Government
1191,-6.813165,39.234805,Dar Es Salaam,Ubungo MC,Mabibo,Amani,Government
1192,-6.7817223,39.1344856,Dar Es Salaam,Ubungo MC,Saranga,Anazak,Non-Government
1193,-6.779335,39.17129,Dar Es Salaam,Ubungo MC,Saranga,Anninyindumi,Non-Government
1194,-6.7113521,39.1576231,Dar Es Salaam,Ubungo MC,Goba,Arise,Non-Government
1195,-6.8023554,39.2084987,Dar Es Salaam,Ubungo MC,Ubungo,Atlas,Non-Government
1196,-6.7615811,39.1131321,Dar Es Salaam,Ubungo MC,Mbezi,Aureke,Non-Government
1197,-6.8133983,39.2428966,Dar Es Salaam,Ubungo MC,Mburahati,Barafu,Government
1198,-6.7403636,39.1077875,Dar Es Salaam,Ubungo MC,Mbezi,Barney,Non-Government
1199,-6.807082,39.130542,Dar Es Salaam,Ubungo MC,Msigani,Belu,Non-Government
1200,-6.6938223,39.1443351,Dar Es Salaam,Ubungo MC,Goba,Beta,Non-Government
1201,-6.7624883,39.06755,Dar Es Salaam,Ubungo MC,Kwembe,Bethel - Msakuzi,Non-Government
1202,-6.8261424,39.2019874,Dar Es Salaam,Ubungo MC,Makuburi,Bethel Mission,Non-Government
1203,-6.7901332,39.1478213,Dar Es Salaam,Ubungo MC,Saranga,Brookside,Non-Government
1204,-6.8105351,39.2818832,Dar Es Salaam,Ubungo MC,Mburahati,Bryceson,Government
1205,-6.788693,39.090818,Dar Es Salaam,Ubungo MC,Mbezi,Calvary Montessory,Non-Government
1206,-6.7400142,39.1439865,Dar Es Salaam,Ubungo MC,Goba,Castle Hills,Non-Government
1207,-6.784912,39.222374,Dar Es Salaam,Ubungo MC,Sinza,Dar Trust Fund,Non-Government
1208,-6.7348773,39.1015362,Dar Es Salaam,Ubungo MC,Mbezi,Darbridge,Non-Government
1209,-6.8011215,39.1450485,Dar Es Salaam,Ubungo MC,Saranga,Dare Integra,Non-Government
1210,-6.7250087,39.1633086,Dar Es Salaam,Ubungo MC,Goba,Devine,Non-Government
1211,-6.8060577,39.2495062,Dar Es Salaam,Ubungo MC,Makurumla,Dr. Omari,Government
1212,-6.7888828,39.1805839,Dar Es Salaam,Ubungo MC,Kimara,Ebonite,Non-Government
1213,-6.7460611,39.0720731,Dar Es Salaam,Ubungo MC,Mbezi,Ekaruwa,Non-Government
1214,-6.7250117,39.1584667,Dar Es Salaam,Ubungo MC,Goba,Elite Sprints,Non-Government
1215,-6.7236111,39.1875001,Dar Es Salaam,Ubungo MC,Goba,Elizabeth,Non-Government
1216,-6.78034,39.05251,Dar Es Salaam,Ubungo MC,Kibamba,Emi,Non-Government
1217,-6.8013724,39.2002346,Dar Es Salaam,Ubungo MC,Makuburi,Emmanuel,Non-Government
1218,-6.7497529,39.278263,Dar Es Salaam,Ubungo MC,Saranga,Filbert Bayi,Non-Government
1219,-6.7879915,39.1071329,Dar Es Salaam,Ubungo MC,Mbezi,Fountain Of Joy,Non-Government
1220,-6.7554854,39.1315253,Dar Es Salaam,Ubungo MC,Mbezi,Francl,Non-Government
1221,-6.7284161,39.1397062,Dar Es Salaam,Ubungo MC,Goba,Future Stars,Non-Government
1222,-6.7999353,39.1356689,Dar Es Salaam,Ubungo MC,Msigani,Gift Skillful,Non-Government
1223,-6.7401184,39.146726,Dar Es Salaam,Ubungo MC,Goba,Goba,Government
1224,-6.7783982,39.0627716,Dar Es Salaam,Ubungo MC,Mbezi,Godiana,Non-Government
1225,-6.8107944,39.1600046,Dar Es Salaam,Ubungo MC,Kimara,Golani,Government
1226,-6.771247,39.074005,Dar Es Salaam,Ubungo MC,Kwembe,Goldenlight,Non-Government
1227,-6.78699157,39.2271978,Dar Es Salaam,Ubungo MC,Sinza,Grace,Non-Government
1228,-6.787378,39.105689,Dar Es Salaam,Ubungo MC,Mbezi,Greenbelt,Non-Government
1229,-6.73450833,39.1740566,Dar Es Salaam,Ubungo MC,Goba,Hekima Waldorf,Non-Government
1230,-6.7159976,39.0613588,Dar Es Salaam,Ubungo MC,Mbezi,Hellens,Non-Government
1231,-6.7863305,39.1283626,Dar Es Salaam,Ubungo MC,Saranga,Highridge,Non-Government
1232,-6.7723839,39.0458384,Dar Es Salaam,Ubungo MC,Kibamba,Hondogo,Government
1233,-6.7511316,39.0852362,Dar Es Salaam,Ubungo MC,Mbezi,Idris A. Wakil,Government
1234,-6.7773729,39.1334587,Dar Es Salaam,Ubungo MC,Saranga,Immaculate,Non-Government
1235,-6.783107,39.196763,Dar Es Salaam,Ubungo MC,Ubungo,Immaculate Heart Of Mary,Non-Government
1236,-6.7891183,39.1783266,Dar Es Salaam,Ubungo MC,Kimara,Jerusalemu,Non-Government
1237,-6.81498,39.22793,Dar Es Salaam,Ubungo MC,Mabibo,Jeshini,Government
1238,-6.778485,39.14932,Dar Es Salaam,Ubungo MC,Saranga,Jitihada,Government
1239,-6.8209704,39.0989058,Dar Es Salaam,Ubungo MC,Kwembe,Joy Care,Non-Government
1240,-6.8060783,39.2492137,Dar Es Salaam,Ubungo MC,Makurumla,Karume,Government
1241,-6.8140116,39.235521,Dar Es Salaam,Ubungo MC,Mabibo,Kawawa,Government
1242,-6.7852083,39.0459016,Dar Es Salaam,Ubungo MC,Kibamba,Kibamba,Government
1243,-6.8006194,39.2050361,Dar Es Salaam,Ubungo MC,Makuburi,Kibangu,Government
1244,-6.8045648,39.1997195,Dar Es Salaam,Ubungo MC,Makuburi,Kibangu Eng.,Non-Government
1245,-6.6963217,39.0696217,Dar Es Salaam,Ubungo MC,Mbezi,Kibesa,Government
1246,-6.7664353,39.0318317,Dar Es Salaam,Ubungo MC,Kibamba,Kibwegere,Government
1247,-6.7908698,39.2273652,Dar Es Salaam,Ubungo MC,Manzese,Kilimani,Government
1248,-6.8050088,39.1684239,Dar Es Salaam,Ubungo MC,Kimara,Kilungule,Government
1249,-6.7873366,39.0192393,Dar Es Salaam,Ubungo MC,Kibamba,Kiluvya,Government
1250,-6.7736985,39.1507202,Dar Es Salaam,Ubungo MC,Saranga,Kimara 'B',Government
1251,-6.7902433,39.1785878,Dar Es Salaam,Ubungo MC,Kimara,Kimara Baruti,Government
1252,-6.817968,39.100557,Dar Es Salaam,Ubungo MC,Kwembe,King'Azi,Government
1253,-6.7643791,39.1514602,Dar Es Salaam,Ubungo MC,Saranga,King'Ongo,Government
1254,-6.745681,39.1400574,Dar Es Salaam,Ubungo MC,Goba,Kings,Non-Government
1255,-6.9273141,39.0415143,Dar Es Salaam,Ubungo MC,Kwembe,Kisopwa,Government
1256,-6.7159435,39.1540346,Dar Es Salaam,Ubungo MC,Goba,Kulangwa,Government
1257,-6.7355266,39.1833866,Dar Es Salaam,Ubungo MC,Goba,Kunguru,Government
1258,-6.8197657,39.0984302,Dar Es Salaam,Ubungo MC,Kwembe,Kwembe,Government
1259,-6.70220221,39.1903573,Dar Es Salaam,Ubungo MC,Goba,Legend,Non-Government
1260,-6.771695,39.067078,Dar Es Salaam,Ubungo MC,Kwembe,Little Wood,Non-Government
1261,-6.7830333,39.2217423,Dar Es Salaam,Ubungo MC,Sinza,Luqman,Non-Government
1262,-6.8107651,39.2136792,Dar Es Salaam,Ubungo MC,Makuburi,Mabibo,Government
1263,-6.7195236,39.1161954,Dar Es Salaam,Ubungo MC,Goba,Macrine,Non-Government
1264,-6.7593283,39.1052916,Dar Es Salaam,Ubungo MC,Mbezi,Makabe,Government
1265,-6.7477765,39.0653823,Dar Es Salaam,Ubungo MC,Mbezi,Makabe Hilltop,Non-Government
1266,-6.7529164,39.0889382,Dar Es Salaam,Ubungo MC,Mbezi,Makamba,Government
1267,-6.80255571,39.13229471,Dar Es Salaam,Ubungo MC,Makuburi,Makoka,Government
1268,-6.8108751,39.2136592,Dar Es Salaam,Ubungo MC,Makuburi,Makuburi,Government
1269,-6.8165864,39.2080973,Dar Es Salaam,Ubungo MC,Makuburi,Makuburi Jeshini,Government
1270,-6.7946033,39.1956967,Dar Es Salaam,Ubungo MC,Ubungo,Malaika,Non-Government
1271,-6.810094,39.113619,Dar Es Salaam,Ubungo MC,Msigani,Malamba Mawili,Government
1272,-6.7967356,39.2284701,Dar Es Salaam,Ubungo MC,Manzese,Manzese,Government
1273,-6.7981783,39.0666033,Dar Es Salaam,Ubungo MC,Kwembe,Maria Mission,Non-Government
1274,-6.8016283,39.1952167,Dar Es Salaam,Ubungo MC,Makuburi,Matsapa,Non-Government
1275,-6.7800743,39.1730324,Dar Es Salaam,Ubungo MC,Saranga,Mavurunza,Government
1276,-6.81036,39.10926,Dar Es Salaam,Ubungo MC,Kwembe,Mawo,Non-Government
1277,-6.7828885,39.1172894,Dar Es Salaam,Ubungo MC,Mbezi,Mbezi,Government
1278,-6.7522287,39.1245228,Dar Es Salaam,Ubungo MC,Mbezi,Mbezi Luis,Government
1279,-6.8135253,39.2818834,Dar Es Salaam,Ubungo MC,Mburahati,Mburahati,Government
1280,-6.8061213,39.2430204,Dar Es Salaam,Ubungo MC,Makurumla,Mianzini,Government
1281,-6.8087142,39.1564811,Dar Es Salaam,Ubungo MC,Kimara,Milenia Ya Tatu,Government
1282,-6.7785727,39.2182268,Dar Es Salaam,Ubungo MC,Ubungo,Mlimani,Government
1283,-6.718194,39.114073,Dar Es Salaam,Ubungo MC,Mbezi,Mont,Non-Government
1284,-6.7503119,39.1472716,Dar Es Salaam,Ubungo MC,Goba,More Light,Non-Government
1285,-6.7605148,39.1324869,Dar Es Salaam,Ubungo MC,Saranga,Mother Emilie Dorman,Non-Government
1286,-6.794689,39.147091,Dar Es Salaam,Ubungo MC,Saranga,Mother Mary,Non-Government
1287,-6.7800732,39.0126804,Dar Es Salaam,Ubungo MC,Kibamba,Mount Calvary,Non-Government
1288,-6.788306,39.130466,Dar Es Salaam,Ubungo MC,Msigani,Mount Moriah,Non-Government
1289,-6.7684225,39.1734664,Dar Es Salaam,Ubungo MC,Saranga,Mountain Hill,Non-Government
1290,-6.80422,39.22938,Dar Es Salaam,Ubungo MC,Mabibo,Mpakani,Government
1291,-6.7672223,39.072085,Dar Es Salaam,Ubungo MC,Kwembe,Msakuzi,Government
1292,-6.802353,39.279556,Dar Es Salaam,Ubungo MC,Ubungo,Msewe,Government
1293,-6.7768769,39.09661404,Dar Es Salaam,Ubungo MC,Mbezi,Mshikamano,Government
1294,-6.7920972,39.1179429,Dar Es Salaam,Ubungo MC,Msigani,Msigani,Government
1295,-6.7112721,39.106675,Dar Es Salaam,Ubungo MC,Mbezi,Msumi,Government
1296,-6.7818662,39.1641813,Dar Es Salaam,Ubungo MC,Saranga,Mt. Kilimanjaro,Non-Government
1297,-6.78875,39.108154,Dar Es Salaam,Ubungo MC,Msigani,Mt. Theresia,Non-Government
1298,-6.7887395,39.2202475,Dar Es Salaam,Ubungo MC,Sinza,Mugabe,Government
1299,-6.8144459,39.2425836,Dar Es Salaam,Ubungo MC,Mburahati,Muungano,Government
1300,-6.7403001,39.1435492,Dar Es Salaam,Ubungo MC,Goba,Muungano Eng. Med.,Non-Government
1301,-6.8186433,39.1293899,Dar Es Salaam,Ubungo MC,Saranga,Naba,Non-Government
1302,-6.7753536,39.0508843,Dar Es Salaam,Ubungo MC,Mbezi,Nawina,Non-Government
1303,-6.7551281,39.0998821,Dar Es Salaam,Ubungo MC,Mbezi,Nicosta,Non-Government
1304,-6.8159752,39.1568545,Dar Es Salaam,Ubungo MC,Kimara,Paradims,Non-Government
1305,-6.7927219,39.2081567,Dar Es Salaam,Ubungo MC,Ubungo,Peace And Love,Non-Government
1306,-6.7496841,39.1873623,Dar Es Salaam,Ubungo MC,Goba,Precious,Non-Government
1307,-6.8318566,39.1136633,Dar Es Salaam,Ubungo MC,Kwembe,Rainbow,Non-Government
1308,-6.7886194,39.2256972,Dar Es Salaam,Ubungo MC,Sinza,Reginald Mengi,Government
1309,-6.7946031,39.1923785,Dar Es Salaam,Ubungo MC,Ubungo,Rosami,Non-Government
1310,-6.7437596,39.1049817,Dar Es Salaam,Ubungo MC,Mbezi,Safi,Non-Government
1311,-6.80789,39.2179061,Dar Es Salaam,Ubungo MC,Mabibo,Sahara,Non-Government
1312,-6.7875251,39.051998,Dar Es Salaam,Ubungo MC,Kibamba,Sakana,Non-Government
1313,-6.8029368,39.1694852,Dar Es Salaam,Ubungo MC,Saranga,Saranga,Government
1314,-6.7714736,39.0497467,Dar Es Salaam,Ubungo MC,Kwembe,Season,Non-Government
1315,-6.7893055,39.2271087,Dar Es Salaam,Ubungo MC,Sinza,Sinza,Government
1316,-6.782597,39.197869,Dar Es Salaam,Ubungo MC,Msigani,St. Anna Marie,Non-Government
1317,-6.7758833,39.1088066,Dar Es Salaam,Ubungo MC,Mbezi,St. Anns,Non-Government
1318,-6.7738132,39.1578174,Dar Es Salaam,Ubungo MC,Saranga,St. Claret,Non-Government
1319,-6.8066195,39.1714008,Dar Es Salaam,Ubungo MC,Kimara,St. Magreth,Non-Government
1320,-6.7991399,39.0863183,Dar Es Salaam,Ubungo MC,Kwembe,St.Felista,Non-Government
1321,-6.7730405,39.1041125,Dar Es Salaam,Ubungo MC,Mbezi,Stars,Non-Government
1322,-6.7471938,39.1324164,Dar Es Salaam,Ubungo MC,Goba,Tegeta 'A',Government
1323,-6.8074956,39.1314102,Dar Es Salaam,Ubungo MC,Msigani,Temboni,Government
1324,-6.8126924,39.1698401,Dar Es Salaam,Ubungo MC,Kimara,Top Layer,Non-Government
1325,-6.7871917,39.100725,Dar Es Salaam,Ubungo MC,Mbezi,Topstar,Non-Government
1326,-6.7714308,39.0965142,Dar Es Salaam,Ubungo MC,Mbezi,Totera,Non-Government
1327,-6.8002267,39.2053017,Dar Es Salaam,Ubungo MC,Makuburi,Ubungo Kisiwani,Government
1328,-6.790513,39.217631,Dar Es Salaam,Ubungo MC,Ubungo,Ubungo Nh,Government
1329,-6.7927841,39.2149409,Dar Es Salaam,Ubungo MC,Ubungo,Ubungo Plaza,Government
1330,-6.7963614,39.2284336,Dar Es Salaam,Ubungo MC,Manzese,Ukombozi,Government
1331,-6.815025,39.228047,Dar Es Salaam,Ubungo MC,Mabibo,Umoja,Government
1332,-6.7824699,39.117947,Dar Es Salaam,Ubungo MC,Mbezi,Upendo,Government
1333,-6.791375,39.2162831,Dar Es Salaam,Ubungo MC,Ubungo,Urafiki,Government
1334,-6.7910134,39.2297926,Dar Es Salaam,Ubungo MC,Manzese,Uzuri,Government
1335,-6.7972755,39.1662344,Dar Es Salaam,Ubungo MC,Kimara,Veritas,Non-Government
