,Region,Council,Ward,SchoolName,Ownership,Latitude,Longitude
0,ARUSHA,Arusha,Kiranyi,ALBEHIJE,Non-Government,-3.3620171,36.6856885
1,ARUSHA,Arusha,Kiranyi,ARUSHA VICTORY,Non-Government,-3.3579834,36.6780255
2,ARUSHA,Arusha,Mateves,ASSALAF,Non-Government,-3.385133,36.5491474
3,ARUSHA,Arusha,Bangata,BANGATA,Government,-3.3403253,36.7431434
4,ARUSHA,Arusha,Mateves,BETHANY,Non-Government,-3.3639833,36.5626783
5,ARUSHA,Arusha,Olorien,BLUE BELL,Non-Government,-3.36329,36.60316
6,ARUSHA,Arusha,Bwawani,BWAWANI,Government,-3.6076467,36.8447191
7,ARUSHA,Arusha,Mateves,DEANERY,Non-Government,-3.3773035,36.5862759
8,ARUSHA,Arusha,Mlangarini,DINKA,Non-Government,-3.4506519,36.7924085
9,ARUSHA,Arusha,Sokon II,EBENEZER,Non-Government,-3.9392741,36.360456
10,ARUSHA,Arusha,Olturumet,EKENYWA,Government,-3.2983403,36.6267205
11,ARUSHA,Arusha,Olmotonyi,EKICA,Non-Government,-3.310745,36.645403
12,ARUSHA,Arusha,Olmotonyi,EMAOI,Government,-3.3080883,36.6489966
13,ARUSHA,Arusha,Tarakwa,ENDOINYOESOYE,Government,-3.3227865,36.6515627
14,ARUSHA,Arusha,Mwandet,ENGALAONI,Government,-3.2379416,36.5442366
15,ARUSHA,Arusha,Bangata,ENGIKARETI,Government,-3.3722475,36.7538238
16,ARUSHA,Arusha,Moivo,ENGILANG'ET,Non-Government,-3.3472802,36.6992602
17,ARUSHA,Arusha,Lemanyata,ENGORIKA,Government,-3.2327941,36.6422835
18,ARUSHA,Arusha,Oldonyowass,ENGUTUKOIT,Government,-3.0463618,36.7477283
19,ARUSHA,Arusha,Laroi,ENJORO,Government,-3.4320129,36.6517247
20,ARUSHA,Arusha,Kiranyi,ENYUATA,Government,-3.3618709,36.6685859
21,ARUSHA,Arusha,Musa,EUNOTO,Government,-3.3373669,36.5598478
22,ARUSHA,Arusha,Moivo,GOODWILL,Non-Government,-3.3551844,36.6921826
23,ARUSHA,Arusha,Kiranyi,GRACIOUS,Non-Government,-3.3475766,36.6696166
24,ARUSHA,Arusha,Kiutu,GREEN ACRES,Non-Government,-3.3624253,36.7056632
25,ARUSHA,Arusha,Kiutu,GREEN PASTURES,Non-Government,-3.346742,36.7242141
26,ARUSHA,Arusha,Laroi,HEDA,Non-Government,-3.4711334,36.6567329
27,ARUSHA,Arusha,Bangata,IKIRWA,Non-Government,-3.3394526,36.7407011
28,ARUSHA,Arusha,Ilboru,ILBORU,Government,-3.3641707,36.7056296
29,ARUSHA,Arusha,Ilboru,ILBORU LUTHERAN,Non-Government,-3.3497765,36.6864527
30,ARUSHA,Arusha,Kisongo,ILKERIN,Government,-3.3567017,36.5261733
31,ARUSHA,Arusha,Ilkiding'a,ILKIDING'A,Government,-3.3178416,36.6848933
32,ARUSHA,Arusha,Ilkiding'a,ILKISONGO,Government,-3.317492,36.965646
33,ARUSHA,Arusha,Kiranyi,ILKIUREI,Government,-3.356937,36.676662
34,ARUSHA,Arusha,Olmotonyi,ILKONERE,Government,-3.3622783,36.7075383
35,ARUSHA,Arusha,Olkokola,ILKUROT,Government,-3.2264657,36.6184642
36,ARUSHA,Arusha,Mwandet,IMBIBIA,Government,-3.2489526,36.5856477
37,ARUSHA,Arusha,Kimnyaki,ISLONG,Non-Government,-3.3179444,36.6455555
38,ARUSHA,Arusha,Olorien,J.K. NYERERE,Government,-3.3431873,36.6461204
39,ARUSHA,Arusha,Olturoto,JOBREAS,Non-Government,-3.3437167,36.6811666
40,ARUSHA,Arusha,Oldonyosambu,JOSHUA VISION,Non-Government,-3.1876998,36.6591451
41,ARUSHA,Arusha,Mateves,KAMBI YA MAZIWA,Government,-3.3732665,36.5763576
42,ARUSHA,Arusha,Bwawani,KIGONGONI,Government,-3.5372021,36.7805231
43,ARUSHA,Arusha,Olorien,KILIMANJARO,Non-Government,-3.3501163,36.6522587
44,ARUSHA,Arusha,Kimnyaki,KIMNYAKI,Government,-3.3154126,36.6547614
45,ARUSHA,Arusha,Kiranyi,KINGDOM,Non-Government,-3.3604433,36.6778
46,ARUSHA,Arusha,Ilkiding'a,KIOGA,Government,-3.3641707,36.7056296
47,ARUSHA,Arusha,Kiranyi,KIRANYI,Government,-3.3587783,36.6683699
48,ARUSHA,Arusha,Mlangarini,KISERIAN,Government,-3.4368069,36.7069836
49,ARUSHA,Arusha,Kisongo,KISONGO,Government,-3.369725,36.547065
50,ARUSHA,Arusha,Bwawani,LAMOLOKI,Government,-3.580214,36.833073
51,ARUSHA,Arusha,Laroi,LAROI,Government,-3.4958783,36.6267749
52,ARUSHA,Arusha,Lemanyata,LEMANYATA,Government,-3.26372,36.61808
53,ARUSHA,Arusha,Oldonyosambu,LEMINYOR,Government,-3.1982275,36.6338513
54,ARUSHA,Arusha,Mateves,LEMUGUR,Government,-3.4318583,36.5611199
55,ARUSHA,Arusha,Olkokola,LENGIJAVE,Government,-3.2224733,36.6038033
56,ARUSHA,Arusha,Kisongo,LESIRAA,Government,-3.3975833,36.5051016
57,ARUSHA,Arusha,Musa,LIKAMBA,Government,-3.3373668,36.559877
58,ARUSHA,Arusha,Musa,LIKAMBA INTEGRITY,Non-Government,-3.3373667,36.5598467
59,ARUSHA,Arusha,Kisongo,LOOVILUKUNYI,Government,-3.4087917,36.5432633
60,ARUSHA,Arusha,Olturoto,LORUVAN,Government,-3.3470433,36.7034833
61,ARUSHA,Arusha,Mwandet,LOSIKITO,Government,-3.5391888,36.6506438
62,ARUSHA,Arusha,Oldonyowass,LOSINONI,Government,-3.0473625,36.6981183
63,ARUSHA,Arusha,Mateves,MAADILI,Non-Government,-3.3833644,36.5864353
64,ARUSHA,Arusha,Olturumet,MAASAY JOY,Non-Government,-3.2686734,36.6327869
65,ARUSHA,Arusha,Olturumet,MAGRETH ENGLAND BARK,Non-Government,-3.3022721,36.6375616
66,ARUSHA,Arusha,Nduruma,MAJI MOTO,Government,-3.3539155,36.0075363
67,ARUSHA,Arusha,Mlangarini,MANYIRE,Government,-3.4546016,36.8054433
68,ARUSHA,Arusha,Nduruma,MARURANI,Government,-3.4798152,36.8440208
69,ARUSHA,Arusha,Lemanyata,MATIM,Government,-3.1548698,36.3745156
70,ARUSHA,Arusha,Oljoro,MBUYUNI,Government,-3.5632833,36.6561466
71,ARUSHA,Arusha,Ilboru,MIALE,Non-Government,-3.3500632,36.3739811
72,ARUSHA,Arusha,Bangata,MIDAWE,Government,-3.3684617,36.7531625
73,ARUSHA,Arusha,Oljoro,MIRONGOINE,Government,-3.5679519,36.6531133
74,ARUSHA,Arusha,Mlangarini,MLANGARINI,Government,-3.4507334,36.7924392
75,ARUSHA,Arusha,Moivo,MOIVO,Government,-3.3470433,36.7034833
76,ARUSHA,Arusha,Olorien,MRINGA,Government,-3.3540036,36.6156082
77,ARUSHA,Arusha,Nduruma,MSHIKAMANO,Government,-3.4798152,36.8440208
78,ARUSHA,Arusha,Bwawani,MUNGUSHI,Government,-3.5292372,36.833401
79,ARUSHA,Arusha,Musa,MUSA,Government,-3.3224154,36.5205957
80,ARUSHA,Arusha,Mlangarini,MUUNGANO,Government,-3.482045,36.7362017
81,ARUSHA,Arusha,Mwandet,MWANDETI,Government,-3.5391888,36.6506438
82,ARUSHA,Arusha,Nduruma,MZIMUNI,Government,-3.5046799,36.8059825
83,ARUSHA,Arusha,Sokon II,NAMBERE,Government,-3.3641707,36.7056296
84,ARUSHA,Arusha,Oldonyowass,NAMELOK,Government,-3.1347033,36.7460733
85,ARUSHA,Arusha,Kiranyi,NATEMA,Government,-3.3399363,36.6999421
86,ARUSHA,Arusha,Kiutu,NAUREI,Government,-3.3516817,36.7147611
87,ARUSHA,Arusha,Nduruma,NDURUMA,Government,-3.4749033,36.7937083
88,ARUSHA,Arusha,Musa,NENGUNGU,Government,-3.3438383,36.4704983
89,ARUSHA,Arusha,Olorien,NEW LIFE,Non-Government,-3.3436141,36.6469212
90,ARUSHA,Arusha,Olturumet,NEW VISION,Non-Government,-3.3408047,36.6264302
91,ARUSHA,Arusha,Olturumet,NGARAMTONI,Government,-3.31586514,36.6382362
92,ARUSHA,Arusha,Sokon II,NG'IRESI,Government,-3.3322759,36.7329216
93,ARUSHA,Arusha,Ilboru,NURU,Non-Government,-3.3500612,36.3739801
94,ARUSHA,Arusha,Olkokola,OLBAK,Government,-3.2233833,36.6046456
95,ARUSHA,Arusha,Kiranyi,OLCHOKI,Government,-3.351912,36.6669001
96,ARUSHA,Arusha,Musa,OLCHOROVUS,Government,-3.2981716,36.5276916
97,ARUSHA,Arusha,Sokon II,OLDADAI,Government,-3.363306,36.734878
98,ARUSHA,Arusha,Nduruma,OLDENDERETI,Government,-3.7448033,36.7637083
99,ARUSHA,Arusha,Oldonyosambu,OLDONYOSAMBU,Government,-3.1540333,36.6776233
100,ARUSHA,Arusha,Olturoto,OLDONYOSAPUK,Government,-3.3119375,36.6311844
101,ARUSHA,Arusha,Oldonyowass,OLDONYOWAS,Government,-3.1548304,36.6864811
102,ARUSHA,Arusha,Laroi,OLEMEDEYE,Government,-3.5189833,36.6075883
103,ARUSHA,Arusha,Kiutu,OLGILAI,Government,-3.3423317,36.7228777
104,ARUSHA,Arusha,Oljoro,OLJORO,Government,-3.5809598,36.6780255
105,ARUSHA,Arusha,Lemanyata,OLKOKOLA,Government,-3.2317394,36.6112483
106,ARUSHA,Arusha,Olmotonyi,OLMOTONYI,Government,-3.2910419,36.6493041
107,ARUSHA,Arusha,Kimnyaki,OLMRINGIRINGA,Government,-3.3046096,36.6716773
108,ARUSHA,Arusha,Olorien,OLOIRIEN VALLEY,Non-Government,-3.3222531,36.6331767
109,ARUSHA,Arusha,Bwawani,OLOKII,Government,-3.5046699,36.8059715
110,ARUSHA,Arusha,Mlangarini,OLOMITU,Government,-3.4079187,36.7623152
111,ARUSHA,Arusha,Olorien,OLOSIVA,Government,-3.3451606,36.6477138
112,ARUSHA,Arusha,Olturumet,OLTURMET,Government,-3.3647191,36.6093081
113,ARUSHA,Arusha,Olturoto,OLTUROTO,Government,-3.33370166,36.6891666
114,ARUSHA,Arusha,Kisongo,PELICAN,Non-Government,-3.389213,36.543736
115,ARUSHA,Arusha,Olmotonyi,ROCKLAND,Non-Government,-3.3125455,36.64241
116,ARUSHA,Arusha,Olmotonyi,SAIDE,Non-Government,-3.662546,36.6234615
117,ARUSHA,Arusha,Sambasha,SAMBASHA,Government,-3.2965333,36.6700454
118,ARUSHA,Arusha,Nduruma,SAMMENA,Non-Government,-3.5838,36.7864
119,ARUSHA,Arusha,Laroi,SAMWA,Non-Government,-3.4029702,36.6994847
120,ARUSHA,Arusha,Bangata,SASI,Government,-3.3656505,36.7619751
121,ARUSHA,Arusha,Kisongo,SEIA EBENEZER,Non-Government,-3.3634156,36.7667873
122,ARUSHA,Arusha,Kiutu,SEKEI,Government,-3.3574107,36.7166343
123,ARUSHA,Arusha,Kimnyaki,SELIAN,Government,-3.3159938,36.6504252
124,ARUSHA,Arusha,Moivo,SHINNING STAR,Non-Government,-3.3605,36.6971
125,ARUSHA,Arusha,Oljoro,SITTI MWINYI,Government,-3.5354545,36.6442353
126,ARUSHA,Arusha,Bwawani,SONGAMBELE,Government,-3.5967621,36.6996712
127,ARUSHA,Arusha,Olturumet,SOS HERMAN,Non-Government,-3.3082129,36.6378041
128,ARUSHA,Arusha,Moivo,SOTWA WILSON,Non-Government,-3.38768,36.7388631
129,ARUSHA,Arusha,Kiranyi,ST. AUGUSTINE,Non-Government,-3.7417673,36.4787644
130,ARUSHA,Arusha,Kisongo,ST. MARGRETH,Non-Government,-3.3717041,36.5805175
131,ARUSHA,Arusha,Kiranyi,ST. PIUS,Non-Government,-3.3554453,36.6781483
132,ARUSHA,Arusha,Kiutu,ST.PAUL,Non-Government,-3.179993,36.649904
133,ARUSHA,Arusha,Bwawani,THEMI YA SIMBA,Government,-3.5967623,36.6996714
134,ARUSHA,Arusha,Sambasha,TIMBOLO,Government,-3.2980756,36.6700733
135,ARUSHA,Arusha,Olorien,TRUST ST. PATRICK,Non-Government,-3.3541965,36.6522091
136,ARUSHA,Arusha,Nduruma,UMOJA,Government,-3.7349033,36.7737083
137,ARUSHA,Arusha,Sokon II,WILKABAA,Non-Government,-3.357785,36.7179266
138,ARUSHA,Arusha,Oljoro,WINNERS,Non-Government,-3.5563652,36.6400394
139,ARUSHA,Arusha,Kisongo,YAKINI,Non-Government,-3.3874027,36.5539942
140,ARUSHA,Arusha CC,Sombetini,ANGELICO LIPAN,Non-Government,-3.3852664,36.6709666
141,ARUSHA,Arusha CC,Olasiti,ARUSHA ALLIANCE,Non-Government,-3.4179135,36.66439
142,ARUSHA,Arusha CC,Elerai,ARUSHA INTEGRATED,Non-Government,-3.3634187,36.6580771
143,ARUSHA,Arusha CC,Levolosi,ARUSHA MERU INT.SCHOOL,Non-Government,-3.375285,36.683857
144,ARUSHA,Arusha CC,Elerai,ARUSHA MODERN,Non-Government,-3.3605817,36.6609211
145,ARUSHA,Arusha CC,Themi,ARUSHA SCHOOL,Government,-3.3760433,36.6941067
146,ARUSHA,Arusha CC,Oloirien,ASSUMPTION,Non-Government,-3.3841364,36.7071053
147,ARUSHA,Arusha CC,Elerai,AZIMIO,Government,-3.3641475,36.6622336
148,ARUSHA,Arusha CC,Baraa,BARAA,Government,-3.3887066,36.737565
149,ARUSHA,Arusha CC,Sokoni I,BARBRA SCHOOL,Non-Government,-3.3995088,36.6700833
150,ARUSHA,Arusha CC,Oloirien,BIBLE BAPTIST,Non-Government,-3.3883282,36.710052
151,ARUSHA,Arusha CC,Baraa,BRIGHT FUTURE,Non-Government,-3.376211,36.729585
152,ARUSHA,Arusha CC,Elerai,BURKA,Government,-3.3648532,36.6614862
153,ARUSHA,Arusha CC,Olasiti,BURKA ESTATE,Government,-3.412956,36.63888
154,ARUSHA,Arusha CC,Sinoni,CAMP JOSHUA,Non-Government,-3.4052699,36.6662027
155,ARUSHA,Arusha CC,Olmoti,CANAAN,Non-Government,-3.3777067,36.6523993
156,ARUSHA,Arusha CC,Baraa,CANOSSA,Non-Government,-3.4572736,36.7102387
157,ARUSHA,Arusha CC,Olasiti,CARMEL,Non-Government,-3.3657887,36.674446
158,ARUSHA,Arusha CC,Muriet,CHETI,Non-Government,-3.4724237,36.6684748
159,ARUSHA,Arusha CC,Sokoni I,CLASSIC,Non-Government,-3.3869259,36.6829952
160,ARUSHA,Arusha CC,Daraja Ii,DARAJA MBILI,Government,-3.386763,36.694123
161,ARUSHA,Arusha CC,Sokoni I,DOMINION,Non-Government,-3.4190654,36.6615265
162,ARUSHA,Arusha CC,Elerai,ELERAI,Government,-3.3729361,36.6567847
163,ARUSHA,Arusha CC,Baraa,ELYON,Non-Government,-3.3881652,36.7319431
164,ARUSHA,Arusha CC,Daraja Ii,ENALEPO,Non-Government,-3.3885302,36.6963438
165,ARUSHA,Arusha CC,Ngarenaro,ENGARENAROK LUTH. TETRA,Non-Government,-3.361385,36.6712933
166,ARUSHA,Arusha CC,Themi,ENGIRA,Government,-3.3940816,36.6975333
167,ARUSHA,Arusha CC,Sinoni,ENGOSENGIU,Government,-3.416155,36.6879112
168,ARUSHA,Arusha CC,Muriet,ENYORATA,Non-Government,-3.3915846,36.738533
169,ARUSHA,Arusha CC,Kimandolu,ERETO,Non-Government,-3.3698883,36.719115
170,ARUSHA,Arusha CC,Sekei,ERNEST MEYNER,Non-Government,-3.36332,36.70027
171,ARUSHA,Arusha CC,Sokoni I,ESA,Non-Government,-3.401541,36.6751321
172,ARUSHA,Arusha CC,Muriet,ESERIAN,Non-Government,-3.4230233,36.6613913
173,ARUSHA,Arusha CC,Sinoni,GHATI MEMORIAL,Non-Government,-3.4076327,36.6829956
174,ARUSHA,Arusha CC,Sokoni I,GLORIOUS SCHOOL,Non-Government,-3.3957777,36.6736666
175,ARUSHA,Arusha CC,Baraa,GLORYLAND,Non-Government,-3.3871483,36.7328517
176,ARUSHA,Arusha CC,Sokoni I,GOLGOTHA,Non-Government,-3.4064473,36.6675744
177,ARUSHA,Arusha CC,Sombetini,GOOD HOPE,Non-Government,-3.3999933,36.6678908
178,ARUSHA,Arusha CC,Muriet,GOSHENI BLESSED,Non-Government,-3.4557663,36.6526501
179,ARUSHA,Arusha CC,Sombetini,GREEN VALLEY,Non-Government,-3.3893041,36.6643634
180,ARUSHA,Arusha CC,Sakina,GREENWHICH,Non-Government,-3.3646697,36.6715656
181,ARUSHA,Arusha CC,Osunyai Jr,HADY,Non-Government,-3.3940461,36.6654966
182,ARUSHA,Arusha CC,Baraa,HAZINA MISSION,Non-Government,-3.425623,36.709255
183,ARUSHA,Arusha CC,Muriet,HEALSUN,Non-Government,-3.4557768,36.6526512
184,ARUSHA,Arusha CC,Moshono,HEAVEN,Non-Government,-3.400161,36.740033
185,ARUSHA,Arusha CC,Muriet,HIGH CHALLENGE,Non-Government,-3.4215342,36.6630579
186,ARUSHA,Arusha CC,Sombetini,HIGH VIEW,Non-Government,-3.3864312,36.6601566
187,ARUSHA,Arusha CC,Themi,HIGHRIDGE,Non-Government,-3.3941999,36.7067188
188,ARUSHA,Arusha CC,Moshono,HOPE,Non-Government,-3.399049,36.7383433
189,ARUSHA,Arusha CC,Osunyai Jr,IMANI SCHOOL,Non-Government,-3.38554,36.668504
190,ARUSHA,Arusha CC,Terrat,INTEGRITY,Non-Government,-3.4443374,36.7090329
191,ARUSHA,Arusha CC,Terrat,INTEL SCHOOLS,Non-Government,-3.4575255,36.70095
192,ARUSHA,Arusha CC,Muriet,JITIHADA,Non-Government,-3.407183,36.721328
193,ARUSHA,Arusha CC,Elerai,JOSEPH SCHOOL,Non-Government,-3.36221,36.65966
194,ARUSHA,Arusha CC,Moshono,JOSHUA,Non-Government,-3.45472,36.7109652
195,ARUSHA,Arusha CC,Kaloleni,KALOLENI,Government,-3.3673166,36.6897459
196,ARUSHA,Arusha CC,Sekei,KIJENGE,Government,-3.376673,36.7048666
197,ARUSHA,Arusha CC,Kimandolu,KIMANDOLU,Government,-3.3683767,36.7045549
198,ARUSHA,Arusha CC,Kimandolu,KIMANDOLU LUTHERAN,Non-Government,-3.370864,36.71531
199,ARUSHA,Arusha CC,Muriet,KING DAVID,Non-Government,-3.4316581,36.6732023
200,ARUSHA,Arusha CC,Muriet,KISIMANI,Government,-3.4487133,36.672925
201,ARUSHA,Arusha CC,Kimandolu,LADY OF MERCY,Non-Government,-3.3887586,36.716045
202,ARUSHA,Arusha CC,Lemara,LEMARA,Government,-3.4033093,36.7002712
203,ARUSHA,Arusha CC,Levolosi,LEVOLOSI,Government,-3.3674863,36.6813965
204,ARUSHA,Arusha CC,Ngarenaro,LISE,Non-Government,-3.3656971,36.6738176
205,ARUSHA,Arusha CC,Oloirien,LOAMO,Non-Government,-3.3882633,36.7133133
206,ARUSHA,Arusha CC,Muriet,LOSIYO,Government,-3.5344623,36.6908775
207,ARUSHA,Arusha CC,Olasiti,LUCKY VICENT,Non-Government,-3.4101138,36.6554973
208,ARUSHA,Arusha CC,Muriet,MACHWA,Non-Government,-3.3500211,36.6263413
209,ARUSHA,Arusha CC,Olmoti,MAGEREZA,Government,-3.3633511,36.6286782
210,ARUSHA,Arusha CC,Elerai,MAJENGO,Non-Government,-3.3693086,36.6588666
211,ARUSHA,Arusha CC,Kaloleni,MAKUMBUSHO,Government,-3.3668437,36.6895808
212,ARUSHA,Arusha CC,Levolosi,MARANATHA MISSION SCHOOL,Non-Government,-3.3610516,36.680395
213,ARUSHA,Arusha CC,Ngarenaro,MAROMBOSO,Non-Government,-3.3693832,36.676965
214,ARUSHA,Arusha CC,Olasiti,MARY IMMACULATE COMPLEX,Non-Government,-3.388433,36.655963
215,ARUSHA,Arusha CC,Olmoti,MATEVES,Government,-3.389619,36.622719
216,ARUSHA,Arusha CC,Olasiti,MATONYOK,Non-Government,-3.40918,36.63854
217,ARUSHA,Arusha CC,Terrat,MAWENI,Government,-3.5105042,36.7146219
218,ARUSHA,Arusha CC,Olasiti,MECSONS,Non-Government,-3.3986519,36.6574591
219,ARUSHA,Arusha CC,Kati,MERU,Government,-3.3699479,36.6898233
220,ARUSHA,Arusha CC,Elerai,MICHAEL SCHOOL,Non-Government,-3.376009,36.665363
221,ARUSHA,Arusha CC,Terrat,MKONOO,Government,-3.4739584,36.7050348
222,ARUSHA,Arusha CC,Oloirien,MOIVOI,Government,-3.3845156,36.7113702
223,ARUSHA,Arusha CC,Moshono,MOSHONO,Government,-3.3908316,36.7306416
224,ARUSHA,Arusha CC,Engutoto,MOUNT MERU,Non-Government,-3.4410988,36.7130472
225,ARUSHA,Arusha CC,Olmoti,MOUNT SINAI,Non-Government,-3.3818533,36.6041454
226,ARUSHA,Arusha CC,Muriet,MURIET,Non-Government,-3.4129023,36.657376
227,ARUSHA,Arusha CC,Sokoni I,MURIET DARAJANI,Government,-3.4178509,36.6902056
228,ARUSHA,Arusha CC,Olmoti,MURONGOINE,Government,-3.4987193,36.6338192
229,ARUSHA,Arusha CC,Ngarenaro,MWANGAZA,Government,-3.374502,36.70066
230,ARUSHA,Arusha CC,Muriet,NADOSOITO,Government,-3.4958982,36.6811609
231,ARUSHA,Arusha CC,Sokoni I,NAKIDO,Non-Government,-3.384808,36.67524
232,ARUSHA,Arusha CC,Engutoto,NALOPA,Non-Government,-3.447028,36.710923
233,ARUSHA,Arusha CC,Baraa,NARIVA HILL,Non-Government,-3.3705596,36.7328033
234,ARUSHA,Arusha CC,Sekei,NAURA,Government,-3.3626924,36.69574
235,ARUSHA,Arusha CC,Olasiti,NEJOLA,Non-Government,-3.4137887,36.638446
236,ARUSHA,Arusha CC,Olasiti,NEW PRECIOUS,Non-Government,-3.4059949,36.652575
237,ARUSHA,Arusha CC,Sinoni,NEW WISDOM,Non-Government,-3.4243133,36.6866971
238,ARUSHA,Arusha CC,Ngarenaro,NGARENARO,Government,-3.3735816,36.6773513
239,ARUSHA,Arusha CC,Engutoto,NJIRO HILL,Government,-3.423265,36.707683
240,ARUSHA,Arusha CC,Lemara,NOTRE DAME,Non-Government,-3.425423,36.702165
241,ARUSHA,Arusha CC,Terrat,NYAHIRI MEMORIAL,Non-Government,-3.4739583,36.7050349
242,ARUSHA,Arusha CC,Olasiti,OLASITI,Government,-3.4137888,36.638447
243,ARUSHA,Arusha CC,Moshono,OLKEREYAN,Government,-3.4455956,36.7083595
244,ARUSHA,Arusha CC,Oloirien,OLOIRIEN,Government,-3.3885404,36.7117286
245,ARUSHA,Arusha CC,Osunyai Jr,OSUNYAI,Government,-3.39012,36.6677933
246,ARUSHA,Arusha CC,Sokoni I,PARENTS,Non-Government,-3.4040983,36.6779233
247,ARUSHA,Arusha CC,Olasiti,PATMOS ISLANDS,Non-Government,-3.407002,36.6603
248,ARUSHA,Arusha CC,Engutoto,PEACE,Non-Government,-3.3310877,36.6120352
249,ARUSHA,Arusha CC,Baraa,PISON,Non-Government,-3.3942766,36.6767066
250,ARUSHA,Arusha CC,Sekei,PRIME,Non-Government,-3.382638,36.696001
251,ARUSHA,Arusha CC,Lemara,RENEA,Non-Government,-3.4034393,36.6948795
252,ARUSHA,Arusha CC,Sinoni,ROYAL,Non-Government,-3.3940732,36.6843222
253,ARUSHA,Arusha CC,Sokoni I,ROYAL VISION,Non-Government,-3.4052955,36.6686583
254,ARUSHA,Arusha CC,Unga Ltd,SALEI,Government,-3.3801921,36.674359
255,ARUSHA,Arusha CC,Sekei,SANAWARI,Government,-3.3627379,36.695889
256,ARUSHA,Arusha CC,Lemara,SHALOM,Non-Government,-3.43765,36.70437
257,ARUSHA,Arusha CC,Moivaro,SHANGARAO,Government,-3.401825,36.7592651
258,ARUSHA,Arusha CC,Moivaro,SHEPHERDS JUNIOR,Non-Government,-3.367207,36.721578
259,ARUSHA,Arusha CC,Sokoni I,SHINDA BASIC,Non-Government,-3.395134,36.67758
260,ARUSHA,Arusha CC,Sinoni,SINON,Government,-3.3938505,36.6820367
261,ARUSHA,Arusha CC,Muriet,SOJEMA,Non-Government,-3.4239797,36.6672372
262,ARUSHA,Arusha CC,Sokoni I,SOKONI I,Government,-3.401735,36.6681033
263,ARUSHA,Arusha CC,Sombetini,SOMBETINI,Government,-3.3900111,36.6665666
264,ARUSHA,Arusha CC,Oloirien,ST. ANDREW'S SCHOOL,Non-Government,-3.3930458,36.7252308
265,ARUSHA,Arusha CC,Muriet,ST. ARNOLD JANSEN,Non-Government,-3.4246304,36.6617959
266,ARUSHA,Arusha CC,Olmoti,ST. GEMMA GALGAN,Non-Government,-3.3700612,36.6025201
267,ARUSHA,Arusha CC,Lemara,ST. MARIA GORETTI,Non-Government,-3.4150928,36.7049892
268,ARUSHA,Arusha CC,Moshono,ST. MONICA,Non-Government,-3.4027233,36.742145
269,ARUSHA,Arusha CC,Moivaro,ST.JUDE,Non-Government,-3.3920172,36.7400327
270,ARUSHA,Arusha CC,Elerai,ST.THADEUS,Non-Government,-3.368465,36.6648771
271,ARUSHA,Arusha CC,Moshono,ST.THOMAS,Non-Government,-3.3771112,36.7376696
272,ARUSHA,Arusha CC,Moivaro,STAR LIGHT,Non-Government,-3.3746393,36.7602326
273,ARUSHA,Arusha CC,Kimandolu,SUYE,Government,-3.3853076,36.7201073
274,ARUSHA,Arusha CC,Ngarenaro,SWIFTS,Non-Government,-3.3655453,36.6750912
275,ARUSHA,Arusha CC,Lemara,TANGANYIKA,Non-Government,-3.41558,36.70428
276,ARUSHA,Arusha CC,Sokoni I,TERESA NUZZO,Non-Government,-3.3566666,36.71485
277,ARUSHA,Arusha CC,Muriet,TERRAT,Government,-3.4557769,36.6526513
278,ARUSHA,Arusha CC,Moshono,TESTMONY,Non-Government,-3.3756211,36.7598955
279,ARUSHA,Arusha CC,Themi,THEMI,Government,-3.3807836,36.6891492
280,ARUSHA,Arusha CC,Engutoto,TUISHIME,Non-Government,-3.4196,36.7079
281,ARUSHA,Arusha CC,Kati,UHURU,Government,-3.67584,36.69908
282,ARUSHA,Arusha CC,Baraa,UHURU PEAK,Non-Government,-3.3702688,36.7375
283,ARUSHA,Arusha CC,Sinoni,UKOMBOZI,Government,-3.3921756,36.6844638
284,ARUSHA,Arusha CC,Unga Ltd,UNGA LTD,Government,-3.3796601,36.6744812
285,ARUSHA,Arusha CC,Ngarenaro,UNITY SCHOOL,Non-Government,-3.3686452,36.675275
286,ARUSHA,Arusha CC,Olmoti,UPENDO FRIENDS,Non-Government,-3.3720349,36.5989967
287,ARUSHA,Arusha CC,Moshono,WEMA,Government,-3.3869135,36.7273423
288,ARUSHA,Karatu,Rhotia,AFRICAN GALLERIA,Government,-3.335606,35.764059
289,ARUSHA,Karatu,Rhotia,AKKO,Government,-3.28761,35.73331
290,ARUSHA,Karatu,Mang'ola,ANTSA,Government,-3.5228316,35.3446233
291,ARUSHA,Karatu,Ganako,ASKOFU HHANDO,Government,-3.3257735,35.7061744
292,ARUSHA,Karatu,Rhotia,ASLIN,Government,-3.3160236,35.7828123
293,ARUSHA,Karatu,Qurus,ASLIN GONGALI,Government,-3.41388,35.67214
294,ARUSHA,Karatu,Ganako,AYALABE,Government,-3.317702,35.690452
295,ARUSHA,Karatu,Buger,AYALALIYO,Government,-3.657525,35.6475333
296,ARUSHA,Karatu,Rhotia,AYATSERE,Government,-3.3333333,35.4444444
297,ARUSHA,Karatu,Kansay,BARAKTA,Government,-3.6742049,35.5685333
298,ARUSHA,Karatu,Endamarariek,BARAY KHUSUMAY,Government,-3.3605848,35.6019046
299,ARUSHA,Karatu,Qurus,BASHAY,Government,-3.3610566,35.6340316
300,ARUSHA,Karatu,Endamarariek,BASODAWISH,Government,-3.442552,35.671485
301,ARUSHA,Karatu,Ganako,BLACK RHINO ACADEMY,Non-Government,-3.1934,35.3908
302,ARUSHA,Karatu,Mbulumbulu,BONDE LA FARU,Government,-3.222795,35.876697
303,ARUSHA,Karatu,Buger,BUGER,Government,-3.6404247,35.6531339
304,ARUSHA,Karatu,Karatu,BWAWANI,Government,-3.2035196,35.4030078
305,ARUSHA,Karatu,Karatu,CATHERINE,Non-Government,-3.3454532,35.6731683
306,ARUSHA,Karatu,Daa,CHANGARAWE,Government,-3.3850433,35.5777433
307,ARUSHA,Karatu,Karatu,CHARM MODERN,Non-Government,-3.3470399,35.6151801
308,ARUSHA,Karatu,Rhotia,CHEMCHEM,Government,-3.3887712,35.7651712
309,ARUSHA,Karatu,Karatu,COSTIGAN,Non-Government,-3.469974,35.6782083
310,ARUSHA,Karatu,Mbulumbulu,DIRANGW,Government,-3.4031878,35.9119987
311,ARUSHA,Karatu,Baray,DUMBECHAND,Government,-3.586457,35.314628
312,ARUSHA,Karatu,Endamarariek,DUUMA,Government,-3.5194717,35.6608983
313,ARUSHA,Karatu,Endabash,ENDABASH,Government,-3.586628,35.603035
314,ARUSHA,Karatu,Endabash,ENDABASH LAJA,Government,-3.5718799,35.611722
315,ARUSHA,Karatu,Endabash,ENDABASH MANGISA,Government,-3.562472,35.616441
316,ARUSHA,Karatu,Kansay,ENDAGESH,Government,-3.6494883,35.5850033
317,ARUSHA,Karatu,Endamarariek,ENDALLAH,Government,-3.4599077,35.7383688
318,ARUSHA,Karatu,Endamaghang,ENDAMAGHANG,Government,-3.5056047,35.3653696
319,ARUSHA,Karatu,Endamarariek,ENDAMARARIEK,Government,-3.5014567,35.6707933
320,ARUSHA,Karatu,Daa,ENDASHANGWET,Government,-3.3544275,35.6057739
321,ARUSHA,Karatu,Baray,ENDESH,Government,-3.7911399,35.9385966
322,ARUSHA,Karatu,Buger,ENDONYAWET,Government,-3.387446,35.758772
323,ARUSHA,Karatu,Karatu,ENDORO,Government,-3.3355454,35.4039434
324,ARUSHA,Karatu,Mang'ola,EYASI,Government,-3.523455,35.30069
325,ARUSHA,Karatu,Buger,GAMDI,Government,-3.6269319,35.6518928
326,ARUSHA,Karatu,Ganako,GANAKO,Government,-3.324141,35.60462911
327,ARUSHA,Karatu,Kansay,GEER,Government,-3.6319733,35.6047266
328,ARUSHA,Karatu,Qurus,GENDAA,Government,-3.397935,35.6898116
329,ARUSHA,Karatu,Endamarariek,GETAMOCK,Government,-3.5193351,35.7113572
330,ARUSHA,Karatu,Baray,GIDAMILANDA,Government,-3.7267383,35.0904083
331,ARUSHA,Karatu,Endamarariek,GIDBASSO,Government,-3.5016491,35.6462815
332,ARUSHA,Karatu,Rhotia,GILALA,Government,-3.2876566,35.7634466
333,ARUSHA,Karatu,Qurus,GONGALI,Government,-3.39049,35.65499
334,ARUSHA,Karatu,Karatu,GYEKRUM ARUSHA,Government,-3.35305166,35.67623166
335,ARUSHA,Karatu,Qurus,GYEKRUM LAMBO,Government,-3.2310148,35.4217796
336,ARUSHA,Karatu,Oldeani,GYETIGHI,Government,-3.1940445,35.3350964
337,ARUSHA,Karatu,Kansay,HARAA,Government,-3.6602497,35.5766187
338,ARUSHA,Karatu,Rhotia,HAREABI,Government,-3.340221,35.7431299
339,ARUSHA,Karatu,Baray,HAYDESH,Government,-3.4745417,35.4669533
340,ARUSHA,Karatu,Ganako,HAYMU,Government,-3.3226262,35.7106732
341,ARUSHA,Karatu,Rhotia,JUHUDI,Government,-3.368767,35.734148
342,ARUSHA,Karatu,Rhotia,KAINAM RHOTIA,Government,-3.3552296,35.726875
343,ARUSHA,Karatu,Kansay,KAMBI YA FARU,Government,-3.6223766,35.6133899
344,ARUSHA,Karatu,Ganako,KAMBI YA NYOKA,Government,-3.3230678,35.6044887
345,ARUSHA,Karatu,Mbulumbulu,KAMBI YA SIMBA,Government,-3.2824066,35.8135016
346,ARUSHA,Karatu,Kansay,KANSAY,Government,-3.6697136,35.5949753
347,ARUSHA,Karatu,Karatu,KARATU,Government,-3.3472211,35.6946583
348,ARUSHA,Karatu,Qurus,KARATU NEW VISION SCHOOL,Non-Government,-3.342866,35.658793
349,ARUSHA,Karatu,Rhotia,KIBAONI,Government,-3.369537,35.797881
350,ARUSHA,Karatu,Rhotia,KILIMAMOJA,Government,-3.3696785,35.8072205
351,ARUSHA,Karatu,Rhotia,KILIMATEMBO,Government,-3.198307,35.444326
352,ARUSHA,Karatu,Qurus,KINIHHE,Government,-3.3592821,35.6597991
353,ARUSHA,Karatu,Mang'ola,KISIMANGEDA,Government,-3.5062199,35.3834598
354,ARUSHA,Karatu,Mbulumbulu,KITETE KCU,Government,-3.221795,35.896697
355,ARUSHA,Karatu,Mbulumbulu,KITETE WS,Government,-3.2470652,35.8330285
356,ARUSHA,Karatu,Mang'ola,LAGHANGARER,Government,-3.5416766,35.3121166
357,ARUSHA,Karatu,Kansay,LAJA,Government,-3.6381757,35.5615466
358,ARUSHA,Karatu,Mbulumbulu,LOSITETE,Government,-3.184095,35.9055433
359,ARUSHA,Karatu,Qurus,MAGESHO,Government,-3.427233,35.645661
360,ARUSHA,Karatu,Endamarariek,MAHHAHA,Government,-3.5109949,35.7085353
361,ARUSHA,Karatu,Daa,MAKHOROMBA,Government,-3.3882612,35.436671
362,ARUSHA,Karatu,Mang'ola,MANGOLA BARAZANI,Government,-3.506129,35.355226
363,ARUSHA,Karatu,Mang'ola,MANGOLA CHINI,Government,-3.5275966,35.3329883
364,ARUSHA,Karatu,Daa,MANG'OLA JUU,Government,-3.3478801,35.6705611
365,ARUSHA,Karatu,Baray,MANG'OLA NT,Government,-3.5526333,35.3409516
366,ARUSHA,Karatu,Endamarariek,MANUSAY,Government,-3.4391166,35.7619916
367,ARUSHA,Karatu,Rhotia,MARAR,Government,-3.3530768,35.7900956
368,ARUSHA,Karatu,Rhotia,MARERA,Government,-3.3058476,35.7154078
369,ARUSHA,Karatu,Mbulumbulu,MARMO,Government,-3.2595116,35.8307916
370,ARUSHA,Karatu,Endamarariek,MASSABEDA,Government,-3.5055522,35.7121901
371,ARUSHA,Karatu,Baray,MATALA,Government,-3.876445,35.751295
372,ARUSHA,Karatu,Baray,MBUGANYEKUNDU,Government,-3.5364116,35.3770483
373,ARUSHA,Karatu,Mbulumbulu,MBULUMBULU,Government,-3.269838,35.794488
374,ARUSHA,Karatu,Baray,MBUYUNI,Government,-3.5332417,35.3714112
375,ARUSHA,Karatu,Endamarariek,MCHANGANI,Government,-3.3583888,35.6237304
376,ARUSHA,Karatu,Oldeani,MEALI,Government,-3.34664,35.63851
377,ARUSHA,Karatu,Qurus,MENDAY,Government,-3.387958,35.673665
378,ARUSHA,Karatu,Daa,MIDABINI,Government,-3.4534516,35.5119099
379,ARUSHA,Karatu,Endamaghang,MIKOCHENI,Government,-3.448669,35.361203
380,ARUSHA,Karatu,Baray,MOHEDAGEW,Government,-3.7614233,35.0094404
381,ARUSHA,Karatu,Baray,MURUS,Government,-3.64455576,35.5733378
382,ARUSHA,Karatu,Qurus,NJIA PANDA,Government,-3.3716814,35.6084517
383,ARUSHA,Karatu,Baray,NJORO,Government,-3.887149,35.810741
384,ARUSHA,Karatu,Oldeani,OLDEANI,Government,-3.3535083,35.5578378
385,ARUSHA,Karatu,Baray,QANGDEND,Government,-3.5026867,35.3943983
386,ARUSHA,Karatu,Endabash,QARU,Government,-3.5204199,35.6199713
387,ARUSHA,Karatu,Endabash,QARU LAMBO,Government,-3.5322416,35.6509016
388,ARUSHA,Karatu,Endabash,QARU SARAMAY,Government,-3.5216133,35.6009966
389,ARUSHA,Karatu,Qurus,QURUS,Government,-3.435155,35.6095633
390,ARUSHA,Karatu,Rhotia,RHOTIA,Government,-3.3084634,35.732386
391,ARUSHA,Karatu,Mbulumbulu,SABASABA,Government,-3.2760353,35.8881344
392,ARUSHA,Karatu,Endamarariek,SHANGIT,Government,-3.4932162,35.6479897
393,ARUSHA,Karatu,Endamarariek,SHAURI AWAKI,Government,-3.5156849,35.6912369
394,ARUSHA,Karatu,Mbulumbulu,SLAHHAMO,Government,-3.3123098,35.7336408
395,ARUSHA,Karatu,Ganako,SUMAWE,Government,-3.33330427,35.6663623
396,ARUSHA,Karatu,Rhotia,TIDIVI,Government,-3.4199456,35.9268008
397,ARUSHA,Karatu,Ganako,TLOMA,Government,-3.3319405,35.6772757
398,ARUSHA,Karatu,Karatu,TUMAINI JUNIOR,Non-Government,-3.3348011,35.6715431
399,ARUSHA,Karatu,Kansay,UMBANGW,Government,-3.338393,35.5338183
400,ARUSHA,Karatu,Rhotia,UMOJA,Government,-3.3061424,35.7324942
401,ARUSHA,Karatu,Baray,YAMAWEEGA,Non-Government,-3.8646933,34.8868567
402,ARUSHA,Longido,Longido,ABERNATHY,Non-Government,-2.7166666,36.7
403,ARUSHA,Longido,Namanga,BUGURUNI,Government,-2.65,36.7833333
404,ARUSHA,Longido,Elang'atadapash,ELANG'ATADAPASH,Government,-2.9333333,36.2333333
405,ARUSHA,Longido,Olmolog,ELERAI,Government,-2.9166666,37.0666666
406,ARUSHA,Longido,Matale A,EMURTOTO,Government,-2.35,36.3666666
407,ARUSHA,Longido,Engarenaibor,ENGARENAIBOR,Government,-2.5166666,36.4833333
408,ARUSHA,Longido,Engikaret,ENGIKARET,Government,-3.0333333,36.6833333
409,ARUSHA,Longido,Kimokouwa,EORENDEKE,Government,-2.55,36.7666666
410,ARUSHA,Longido,Gelai Meirugoi,GELAI BOMBA,Government,-2.7166666,36.1
411,ARUSHA,Longido,Gelai Lumbwa,GELAI LUMBWA,Government,-2.6,36.1833333
412,ARUSHA,Longido,Ilorienito,ILOIRIENITO,Government,-2.8666666,36.1833333
413,ARUSHA,Longido,Kamwanga,IRKASWA,Government,-2.8666666,37.2042217
414,ARUSHA,Longido,Matale A,IRNG'ONG'WEN,Government,-2.3833333,36.4833333
415,ARUSHA,Longido,Kamwanga,KAMWANGA,Government,-2.8666666,37.3521317
416,ARUSHA,Longido,Ketumbeine,KETUMBEINE,Government,-2.8166666,36.3
417,ARUSHA,Longido,Kimokouwa,KIMOKOUWA,Government,-2.6333333,36.7
418,ARUSHA,Longido,Engarenaibor,KIMWATI,Government,-2.4166666,36.5333333
419,ARUSHA,Longido,Engikaret,KISERIAN,Government,-2.8333333,36.5166666
420,ARUSHA,Longido,Mundarara,KITARINI,Government,-2.6166666,36.45
421,ARUSHA,Longido,Kamwanga,KITENDENI,Government,-2.8505683,37.2333333
422,ARUSHA,Longido,Olmolog,LERANG'WA,Government,-2.8333333,37.1833333
423,ARUSHA,Longido,Mundarara,LESING'ITA,Government,-2.6333333,35.55
424,ARUSHA,Longido,Longido,LONGIDO,Government,-2.6833333,36.7
425,ARUSHA,Longido,Longido,LONGIDO MODERN,Non-Government,-2.7375043,36.7002351
426,ARUSHA,Longido,Ketumbeine,LOPOLOSEKI,Government,-2.7833333,36.3
427,ARUSHA,Longido,Ilorienito,LOSIRWA,Government,-2.8333333,36.0
428,ARUSHA,Longido,Kimokouwa,MAASAI ACADEMY,Non-Government,-2.55,36.7666666
429,ARUSHA,Longido,Gelai Meirugoi,MAGADINI,Government,-3.6166666,36.0
430,ARUSHA,Longido,Engarenaibor,MAIROWA INTEGRITY,Non-Government,-2.5333333,36.4833333
431,ARUSHA,Longido,Ketumbeine,MANGULA,Government,-2.85,36.3166666
432,ARUSHA,Longido,Matale A,MATALE,Government,-2.4333333,36.4166666
433,ARUSHA,Longido,Mundarara,MUNDARARA,Government,-2.6166666,36.6
434,ARUSHA,Longido,Orbomba,NAIBORSOIT,Government,-2.75,36.6166666
435,ARUSHA,Longido,Namanga,NAMANGA,Government,-2.55,36.7833333
436,ARUSHA,Longido,Engikaret,NEW VISION,Non-Government,-3.0,36.6666666
437,ARUSHA,Longido,Tingatinga,NGEREYANI,Government,-2.9833333,36.8553366
438,ARUSHA,Longido,Engarenaibor,NGOSWAK,Government,-2.5,36.4833333
439,ARUSHA,Longido,Noondoto,NOONDOTO,Government,-2.9833333,36.2833333
440,ARUSHA,Longido,Elang'atadapash,OLCHORONYOKIE,Government,-2.9,36.25
441,ARUSHA,Longido,Olmolog,OLMOLOG,Government,-2.8666666,37.1166666
442,ARUSHA,Longido,Olmolog,OLMOTI,Government,-2.8833333,37.0666666
443,ARUSHA,Longido,Orbomba,OLTEPES,Government,-2.7333333,36.7166666
444,ARUSHA,Longido,Orbomba,ORBOMBA,Government,-2.7166666,36.6666666
445,ARUSHA,Longido,Orbomba,RANCH,Government,-2.7833333,36.6666666
446,ARUSHA,Longido,Engarenaibor,SINONIK,Government,-2.5,36.5833333
447,ARUSHA,Longido,Sinya,SINYA,Government,-2.7833333,36.95
448,ARUSHA,Longido,Elang'atadapash,SOKON,Government,-2.9333333,36.2166666
449,ARUSHA,Longido,Kimokouwa,ST.THERESA,Non-Government,-2.55,36.7833333
450,ARUSHA,Longido,Tingatinga,TINGATINGA,Government,-2.9666666,36.9560616
451,ARUSHA,Meru,Shambarai Burka,AIMBORA JUNIOR,Non-Government,-3.55065,36.90053
452,ARUSHA,Meru,Akheri,AKERI,Government,-3.3461,36.77586
453,ARUSHA,Meru,Akheri,AKERI HOPE,Non-Government,-3.34814,36.77505
454,ARUSHA,Meru,Usariver,AMANI,Non-Government,-3.37221,36.84475
455,ARUSHA,Meru,Ambureni,AMBURENI,Government,-3.36451,36.75255
456,ARUSHA,Meru,Nkoaranga,BERNADETA,Non-Government,-3.35609,36.84322
457,ARUSHA,Meru,Usariver,BETHLEHEM STAR,Non-Government,-3.37221,36.84475
458,ARUSHA,Meru,Kikwe,BLUE SKY,Non-Government,-3.39492,36.82098
459,ARUSHA,Meru,Poli,CAPRICON,Non-Government,-3.38387,36.83443
460,ARUSHA,Meru,Kikatiti,CHEMCHEM,Government,-3.38521,36.93892
461,ARUSHA,Meru,Maji ya chai,CHERITH,Non-Government,-3.37522,36.89516
462,ARUSHA,Meru,Ambureni,DAVIS PREPARATORY,Non-Government,-3.36898,36.75682
463,ARUSHA,Meru,Imbaseni,DESTINY,Non-Government,-3.36294,36.89074
464,ARUSHA,Meru,Imbaseni,DIAMOND,Non-Government,-3.36939,36.88487
465,ARUSHA,Meru,Maroroni,DOLLY,Government,-3.42892,36.87966
466,ARUSHA,Meru,Maruvango,EAST MERU,Non-Government,-3.25112,36.9705
467,ARUSHA,Meru,Malula,ELIZABETH CENTRE,Non-Government,-3.36568,37.05779
468,ARUSHA,Meru,Ngarenanyuki,EMANUEL,Government,-3.17076,36.9054
469,ARUSHA,Meru,Majengo,ENGATANI,Government,-3.50994,36.99998
470,ARUSHA,Meru,Malula,ENGEJISOSIA,Government,-3.30941,37.02618
471,ARUSHA,Meru,Imbaseni,ESTER MEMORIAL,Non-Government,-3.31848,36.87289
472,ARUSHA,Meru,Maruvango,ETINGARE,Government,-3.21742,36.96405
473,ARUSHA,Meru,Imbaseni,FRANCIS DE SALES,Non-Government,-3.35995,36.8979
474,ARUSHA,Meru,Nkoanrua,GRACE ULONG'A,Non-Government,-3.33801,36.76138
475,ARUSHA,Meru,Ambureni,HARADALI,Non-Government,-3.36494,36.76423
476,ARUSHA,Meru,Maji ya chai,HOLY PEAK,Non-Government,-3.37984,36.89465
477,ARUSHA,Meru,Ngarenanyuki,ILKIRIMUNI,Government,-3.17076,36.90542
478,ARUSHA,Meru,Imbaseni,IMBASENI,Government,-3.34221,36.89029
479,ARUSHA,Meru,Imbaseni,IMBASENI PEACE,Non-Government,-3.36578,36.89547
480,ARUSHA,Meru,Leguruki,JALI GREEN,Non-Government,-3.23721,36.91396
481,ARUSHA,Meru,Majengo,KALOLENI,Government,-3.46107,37.0404
482,ARUSHA,Meru,Leguruki,KANDASHE,Government,-3.20423,36.93916
483,ARUSHA,Meru,Kikwe,KARANGAI,Government,-3.47449,36.86588
484,ARUSHA,Meru,Maji ya chai,KELLYS,Non-Government,-3.37933,36.9001
485,ARUSHA,Meru,Usariver,KENEDY HOUSE,Non-Government,-3.3799,36.85835
486,ARUSHA,Meru,Shambarai Burka,KERIKENY,Government,-3.5616423,36.892397
487,ARUSHA,Meru,Kikatiti,KIKATITI,Government,-3.40168,36.94381
488,ARUSHA,Meru,Kikwe,KIKWE,Government,-3.42414,36.82788
489,ARUSHA,Meru,Usariver,KILIMANI,Government,-3.36895,36.84644
490,ARUSHA,Meru,Songoro,KILINGA,Government,-3.31541,36.83574
491,ARUSHA,Meru,Maji ya chai,KIMANDAFU,Government,-3.38697,36.9249
492,ARUSHA,Meru,Uwiro,KIMOSONU,Government,-3.12764,36.86704
493,ARUSHA,Meru,Nkoarisambu,KIMUNDO,Government,-3.35069,36.78198
494,ARUSHA,Meru,King'ori,KING'ORI,Government,-3.30435,36.98944
495,ARUSHA,Meru,King'ori,KIRENGA,Government,-3.29659,36.97886
496,ARUSHA,Meru,Uwiro,KISIMIRI CHINI,Government,-3.16683,36.81672
497,ARUSHA,Meru,Uwiro,KISIMIRI JUU,Government,-3.14948,36.77242
498,ARUSHA,Meru,Maji ya chai,KITEFU,Government,-3.39129,36.90137
499,ARUSHA,Meru,Songoro,KIWAHUDU,Non-Government,-3.392294,36.8130828
500,ARUSHA,Meru,Imbaseni,KIWAWA,Government,-3.3381,36.87532
501,ARUSHA,Meru,Malula,KOLILA,Government,-3.33539,37.03922
502,ARUSHA,Meru,Nkoaranga,KOMBO,Non-Government,-3.34234,36.81475
503,ARUSHA,Meru,King'ori,KWA TULELE,Government,-3.27494,36.97886
504,ARUSHA,Meru,Maroroni,KWA UGORO,Government,-3.46656,36.87661
505,ARUSHA,Meru,Usariver,LEGANGA,Government,-3.36987,36.84684
506,ARUSHA,Meru,Maruvango,LEGURUKI,Government,-3.25452,36.94741
507,ARUSHA,Meru,Ngarenanyuki,LENDOIYA,Government,-3.19516,36.89053
508,ARUSHA,Meru,Maji ya chai,LERAI,Government,-3.34052,36.91476
509,ARUSHA,Meru,Makiba,LOSITETI,Government,-3.47392,36.9523
510,ARUSHA,Meru,Majengo,MAJENGO,Government,-3.48708,37.01328
511,ARUSHA,Meru,Maji ya chai,MAJI YA CHAI,Government,-3.36177,36.91515
512,ARUSHA,Meru,Makiba,MAKIBA,Government,-3.53357,36.96211
513,ARUSHA,Meru,Poli,MAKUMIRA,Government,-3.35719,36.82574
514,ARUSHA,Meru,Poli,MAKUMIRA-KILALA,Non-Government,-3.37389,36.83031
515,ARUSHA,Meru,Malula,MALULA,Government,-3.37189,37.02258
516,ARUSHA,Meru,Usariver,MANYATA,Government,-3.41891,36.84597
517,ARUSHA,Meru,Malula,MANYOTA,Non-Government,-3.37517,37.01936
518,ARUSHA,Meru,King'ori,MAREU,Government,-3.31654,36.97366
519,ARUSHA,Meru,Poli,MARIADO,Non-Government,-3.38061,36.8446
520,ARUSHA,Meru,Maroroni,MARORONI,Government,-3.43609,36.90921
521,ARUSHA,Meru,Maruvango,MARUANGO,Government,-3.24996,36.98722
522,ARUSHA,Meru,Ngabobo,MASAI VISION,Government,-3.10823,36.9202
523,ARUSHA,Meru,Nkoaranga,MAUA ACADEMY,Non-Government,-3.35556,36.84117
524,ARUSHA,Meru,Akheri,MAVINUNI,Government,-3.35844,36.77546
525,ARUSHA,Meru,Kikwe,MAWENI,Government,-3.45494,36.85388
526,ARUSHA,Meru,Maruvango,MBAASENY,Government,-3.23726,36.95727
527,ARUSHA,Meru,King'ori,MBORENY,Government,-3.27646,37.03239
528,ARUSHA,Meru,Mbuguni,MBUGUNI,Government,-3.54292,36.91769
529,ARUSHA,Meru,Imbaseni,MERU PEAK,Non-Government,-3.33241,36.88148
530,ARUSHA,Meru,Maroroni,MERU VISION,Non-Government,-3.46645,36.87651
531,ARUSHA,Meru,Nkoarisambu,MFULONY,Government,-3.33491,36.77079
532,ARUSHA,Meru,Mbuguni,MIEMBENI,Government,-3.55709,36.93161
533,ARUSHA,Meru,Maroroni,MIGANDINI,Government,-3.4419,36.8893
534,ARUSHA,Meru,Mbuguni,MIKUNGANI,Government,-3.56574,36.95368
535,ARUSHA,Meru,Malula,MIKUUNI,Government,-3.34516,37.00078
536,ARUSHA,Meru,Leguruki,MIRIRINI,Government,-3.22491,36.92253
537,ARUSHA,Meru,Maji ya chai,MKOMBOZI,Non-Government,-3.39446,36.89632
538,ARUSHA,Meru,Ambureni,MOIVARO,Government,-3.3738,36.75595
539,ARUSHA,Meru,Maruvango,MOWARA,Government,-3.23475,36.98478
540,ARUSHA,Meru,Shambarai Burka,MSITU WA MBOGO,Government,-3.52412,36.88332
541,ARUSHA,Meru,Uwiro,MUKURU,Government,-3.1263,36.80268
542,ARUSHA,Meru,Songoro,MULALA,Government,-3.31997,36.82991
543,ARUSHA,Meru,Ngarenanyuki,MWAKENY,Government,-3.1919,36.83618
544,ARUSHA,Meru,Kikwe,NAMBALA,Government,-3.39584,36.80696
545,ARUSHA,Meru,Ngarenanyuki,NARIVA,Non-Government,-3.14105,36.877228
546,ARUSHA,Meru,Ngarenanyuki,NASULA,Government,-3.21638,36.86165
547,ARUSHA,Meru,Maji ya chai,NAZARETH LERAI,Non-Government,-3.34142,36.81375
548,ARUSHA,Meru,Maroroni,NAZARETI,Government,-3.46159,36.91671
549,ARUSHA,Meru,Nkoarisambu,NDOOMBO,Government,-3.32536,36.77525
550,ARUSHA,Meru,Kikwe,NEW HOPE,Non-Government,-3.40655,36.82732
551,ARUSHA,Meru,Ngabobo,NGABOBO,Government,-3.10841,36.89384
552,ARUSHA,Meru,Kikwe,NGANANA,Government,-3.4048,36.79421
553,ARUSHA,Meru,Uwiro,NGARENANYUKI,Government,-3.14979,36.8403
554,ARUSHA,Meru,Imbaseni,NGONGONGARE,Government,-3.31638,36.88242
555,ARUSHA,Meru,Maji ya chai,NGORIKA HAPPY WATOTO,Non-Government,-3.34008,36.90759
556,ARUSHA,Meru,Maji ya chai,NGURDOTO,Government,-3.32781,36.91238
557,ARUSHA,Meru,Akheri,NGURUMA,Government,-3.37137,36.77364
558,ARUSHA,Meru,Nkoaranga,NGYANI,Government,-3.33608,36.82594
559,ARUSHA,Meru,Kikatiti,NGYEKU,Government,-3.34634,36.9234
560,ARUSHA,Meru,Leguruki,NIRUVANDE,Non-Government,-3.23417,36.93069
561,ARUSHA,Meru,Poli,NKOAKIRIKA,Government,-3.34052,36.80011
562,ARUSHA,Meru,Kikatiti,NKOAMANGASHA,Government,-3.38085,36.97173
563,ARUSHA,Meru,Nkoanekoli,NKOANEKOLI,Government,-3.33469,36.85623
564,ARUSHA,Meru,Nkoanrua,NKOANRUA,Government,-3.3502,36.76664
565,ARUSHA,Meru,King'ori,NKOANSIYO,Government,-3.25923,37.01685
566,ARUSHA,Meru,Nkoaranga,NKOARANGA,Government,-3.33608,36.82594
567,ARUSHA,Meru,Leguruki,NKOASENGA,Government,-3.2511,36.91169
568,ARUSHA,Meru,Leguruki,NOSEIYA,Government,-3.19396,36.91396
569,ARUSHA,Meru,Malula,NRUMANGENI,Government,-3.35999,37.03252
570,ARUSHA,Meru,Nkoaranga,NSHUPU,Government,-3.34923,36.83427
571,ARUSHA,Meru,Malula,NTUWE,Government,-3.29504,37.01963
572,ARUSHA,Meru,King'ori,NURU,Government,-3.28688,36.99002
573,ARUSHA,Meru,Shambarai Burka,OLDEVES,Government,-3.56185,36.09753
574,ARUSHA,Meru,Ngarenanyuki,OLKUG'WADO,Government,-3.17037,36.86645
575,ARUSHA,Meru,Akheri,PATANDI,Government,-3.36954,36.78674
576,ARUSHA,Meru,Makiba,PATANUMBE,Government,-3.51591,36.94673
577,ARUSHA,Meru,Nkoarisambu,PEACE MATUNDA,Non-Government,-3.33773,36.77367
578,ARUSHA,Meru,Mbuguni,PIERALBA,Non-Government,-3.58853,36.91339
579,ARUSHA,Meru,Poli,POLI,Government,-3.35203,36.80303
580,ARUSHA,Meru,Nkoaranga,PRECIOUS,Non-Government,-3.34795,36.83791
581,ARUSHA,Meru,Kikatiti,SAKILA,Government,-3.34562,36.95773
582,ARUSHA,Meru,Maroroni,SAMARIA,Government,-3.43281,36.97215
583,ARUSHA,Meru,Nkoanekoli,SANGANANU,Government,-3.34333,36.85142
584,ARUSHA,Meru,Maroroni,SAVANA,Government,-3.40918,36.99273
585,ARUSHA,Meru,Ambureni,SAYUNI,Non-Government,-3.37893785,36.75606427
586,ARUSHA,Meru,Seela Sing'isi,SEELA,Government,-3.33093,36.7858
587,ARUSHA,Meru,Kikatiti,SHAKINA,Non-Government,-3.39402,36.9434
588,ARUSHA,Meru,Nkoaranga,SHIKABANIA,Non-Government,-3.33406,36.8119
589,ARUSHA,Meru,Maruvango,SHISHTONY,Government,-3.23175,36.94874
590,ARUSHA,Meru,Kikwe,SILVER,Non-Government,-3.41246,36.82375
591,ARUSHA,Meru,Imbaseni,SILVERLEAF,Non-Government,-3.3422,36.87945
592,ARUSHA,Meru,Ngabobo,SIMBA VISION,Government,-3.10355,36.88194
593,ARUSHA,Meru,Leguruki,SINAI,Government,-3.19396,36.90686
594,ARUSHA,Meru,Seela Sing'isi,SING'ISI,Government,-3.31326,36.792
595,ARUSHA,Meru,Kikatiti,SLUYS ANDERSON,Non-Government,-3.34285,36.96473
596,ARUSHA,Meru,Songoro,SONGORO,Government,-3.31784,36.81653
597,ARUSHA,Meru,Maji ya chai,ST. VIVIAN,Non-Government,-3.39544,36.90667
598,ARUSHA,Meru,Maji ya chai,SUNSHIELD,Non-Government,-3.36508,36.90629
599,ARUSHA,Meru,Songoro,SURA,Government,-3.32453,36.7974
600,ARUSHA,Meru,Kikatiti,SURUMALA,Government,-3.36489,36.93792
601,ARUSHA,Meru,Imbaseni,TANZANIA ADVENTIST,Non-Government,-3.22156,36.88163
602,ARUSHA,Meru,Mbuguni,TANZANITE,Government,-3.54449,36.91684
603,ARUSHA,Meru,Akheri,TENGERU,Government,-3.38018,36.80182
604,ARUSHA,Meru,Akheri,TENGERU ENGLISH MEDIUM,Non-Government,-3.36141,36.78083
605,ARUSHA,Meru,Imbaseni,TUMAINI  MISSION,Non-Government,-3.37242,36.88204
606,ARUSHA,Meru,Maji ya chai,TUVAILA,Government,-3.36398,36.89997
607,ARUSHA,Meru,Nkoanrua,ULONG'A,Government,-3.33618,36.75756
608,ARUSHA,Meru,King'ori,UPENDO,Government,-3.28055,37.00745
609,ARUSHA,Meru,Usariver,UPENDO ACADEMY,Non-Government,-3.37736,36.84352
610,ARUSHA,Meru,Poli,URAKI,Government,-3.38502,36.8329
611,ARUSHA,Meru,Songoro,URISHO,Government,-3.32175,36.81051
612,ARUSHA,Meru,Usariver,USA RIVER,Government,-3.36393,36.85551
613,ARUSHA,Meru,Usariver,USA RIVER ACADEMY,Non-Government,-3.3585,36.86495
614,ARUSHA,Meru,Songoro,USHILI,Government,-3.32316,36.79617
615,ARUSHA,Meru,Makiba,VALESKA,Government,-3.51499,36.91898
616,ARUSHA,Meru,Ngarenanyuki,WORSEG VISION,Government,-3.21176,36.86326
617,ARUSHA,Meru,Usariver,YOUNGROSES,Non-Government,-3.36633,36.85555
618,ARUSHA,Monduli,Sepeko,ARKARIA,Government,-3.326774,36.302944
619,ARUSHA,Monduli,Sepeko,ARKATANI,Government,-3.4190996,36.3925678
620,ARUSHA,Monduli,Majengo,BANDARI,Non-Government,-3.348853,35.865749
621,ARUSHA,Monduli,Esilalei,BARAKA,Government,-3.3597625,35.9046817
622,ARUSHA,Monduli,Monduli juu,ELUWAI,Government,-3.222242,36.364997
623,ARUSHA,Monduli,Engutoto,EMBURIS,Non-Government,-3.289413,36.449105
624,ARUSHA,Monduli,Esilalei,ENDEPESI,Government,-3.545597,35.938214
625,ARUSHA,Monduli,Lepurko,ENG'AROOJI,Government,-3.318481,36.245002
626,ARUSHA,Monduli,Engaruka,ENGARUKA CHINI,Government,-3.000683,36.004758
627,ARUSHA,Monduli,Engaruka,ENGARUKA JUU,Government,-2.99772,35.962545
628,ARUSHA,Monduli,Lepurko,ENGIRGIR,Government,-3.4099563,36.2354446
629,ARUSHA,Monduli,Monduli juu,ENGUIKI,Government,-3.236976,36.427041
630,ARUSHA,Monduli,Sepeko,ERETORE,Non-Government,-3.3517066,36.3776488
631,ARUSHA,Monduli,Esilalei,ESILALEI,Government,-3.4455756,35.9538537
632,ARUSHA,Monduli,Esilalei,EUNOTO,Government,-3.316397,35.891054
633,ARUSHA,Monduli,Makuyuni,HIHA,Non-Government,-3.5497262,36.1119154
634,ARUSHA,Monduli,Monduli juu,IRMORIJO,Government,-3.265574,36.341739
635,ARUSHA,Monduli,Engutoto,JAERIM,Non-Government,-3.287434,36.437301
636,ARUSHA,Monduli,Mto wa Mbu,JANGWANI,Government,-3.386481,35.855789
637,ARUSHA,Monduli,Sepeko,KHATIMUL AMBIYAA,Non-Government,-3.415004,36.321258
638,ARUSHA,Monduli,Migungani,KIGONGONI,Government,-3.3802243,35.8897444
639,ARUSHA,Monduli,Moita,KILIMATINDE,Government,-3.635536,36.592745
640,ARUSHA,Monduli,Esilalei,LAIBONI,Government,-3.4825589,35.9971582
641,ARUSHA,Monduli,Esilalei,LAKE MANYARA,Non-Government,-3.374085,35.889872
642,ARUSHA,Monduli,Lashaine,LASHAINE,Government,-3.327807,36.439287
643,ARUSHA,Monduli,Lemooti,LEMOOTI,Government,-3.763849,36.310248
644,ARUSHA,Monduli,Sepeko,LENDIKINYA,Government,-3.345865,36.354322
645,ARUSHA,Monduli,Lemooti,LENGIJAPE,Government,-3.780741,36.396486
646,ARUSHA,Monduli,Naalarami,LENGILORITI,Government,-3.66507,36.469082
647,ARUSHA,Monduli,Lemooti,LENGOLWA,Government,-3.755865,36.398707
648,ARUSHA,Monduli,Lepurko,LEPURKO,Government,-3.355327,36.226719
649,ARUSHA,Monduli,Lolkisale,LOKISALE,Government,-3.764467,36.419246
650,ARUSHA,Monduli,Lemooti,LOOSIKITO,Government,-3.768447,36.486317
651,ARUSHA,Monduli,Meserani,LOOSINGIRANI,Government,-3.399942,36.4909101
652,ARUSHA,Monduli,Lepurko,LOSIMINGORI,Government,-3.420302,36.181454
653,ARUSHA,Monduli,Esilalei,LOSIRWA,Government,-3.4043305,35.9116882
654,ARUSHA,Monduli,Majengo,MAJENGO,Government,-3.348419,36.864657
655,ARUSHA,Monduli,Makuyuni,MAKUYUNI,Government,-3.5535675,36.1000115
656,ARUSHA,Monduli,Makuyuni,MANYARA RANCH,Government,-3.529363,36.4510167
657,ARUSHA,Monduli,Monduli Mjini,MAZOEZI,Government,-3.2988896,36.4510167
658,ARUSHA,Monduli,Selela,MBAASH,Government,-3.208522,36.058332
659,ARUSHA,Monduli,Makuyuni,MBUYUNI,Government,-3.475023,36.203552
660,ARUSHA,Monduli,Meserani,MESERANI CHINI,Government,-3.524547,36.456151
661,ARUSHA,Monduli,Meserani,MESERANI JUU,Government,-3.437517,36.478776
662,ARUSHA,Monduli,Engutoto,MEYERS,Non-Government,-3.295362,36.434877
663,ARUSHA,Monduli,Mfereji,MFEREJI,Government,-3.187362,36.458279
664,ARUSHA,Monduli,Majengo,MIGOMBANI,Government,-3.3389392,35.8444609
665,ARUSHA,Monduli,Engutoto,MLIMANI,Government,-3.3004907,36.4571691
666,ARUSHA,Monduli,Moita,MOITA BWAWANI,Government,-3.559917,36.600996
667,ARUSHA,Monduli,Moita,MOITA KILORITI,Government,-3.47627,36.569395
668,ARUSHA,Monduli,Monduli juu,MONDULI JUU,Government,-3.25139,36.394253
669,ARUSHA,Monduli,Monduli Mjini,MONDULI VALLEY,Non-Government,-3.302417,36.448553
670,ARUSHA,Monduli,Mswakini,MSWAKINI,Government,-3.643355,36.014866
671,ARUSHA,Monduli,Mswakini,MSWAKINI JUU,Government,-3.674287,36.055547
672,ARUSHA,Monduli,Sepeko,MTI MMOJA,Government,-3.4063073,36.3051309
673,ARUSHA,Monduli,Majengo,MTOWAMBU,Government,-3.372652,35.8514334
674,ARUSHA,Monduli,Migungani,MWALIMU ANNA,Non-Government,-3.372247,35.869387
675,ARUSHA,Monduli,Naalarami,NAALARAMI,Government,-3.619819,36.514947
676,ARUSHA,Monduli,Lolkisale,NAFCO,Government,-3.721533,36.406498
677,ARUSHA,Monduli,Makuyuni,NAITI,Government,-3.509631,36.175669
678,ARUSHA,Monduli,Mswakini,NAITOLIA,Government,-3.60275,36.089995
679,ARUSHA,Monduli,Engutoto,NANINA,Non-Government,-3.321517,36.448004
680,ARUSHA,Monduli,Lepurko,NANJA,Government,-3.3967693,36.2536849
681,ARUSHA,Monduli,Makuyuni,NASHIPAI,Non-Government,-3.5474984,36.123859
682,ARUSHA,Monduli,Selela,NDINYIKA,Government,-3.220329,35.956388
683,ARUSHA,Monduli,Lolkisale,NDUKUSI,Government,-3.679917,36.605433
684,ARUSHA,Monduli,Majengo,NGALAWA,Non-Government,-3.3798596,35.8909281
685,ARUSHA,Monduli,Engutoto,NGARASH,Government,-3.2998149,36.4342381
686,ARUSHA,Monduli,Engutoto,OLARASH,Government,-3.311579,36.475498
687,ARUSHA,Monduli,Esilalei,OLTUKAI,Government,-3.6333635,35.9206432
688,ARUSHA,Monduli,Esilalei,OOLA,Non-Government,-3.383094,35.895403
689,ARUSHA,Monduli,Lashaine,ORKEESWA,Government,-3.309568,36.399394
690,ARUSHA,Monduli,Esilalei,PERFECT,Non-Government,-3.4410696,35.9505411
691,ARUSHA,Monduli,Esilalei,SASA,Non-Government,-3.3712432,35.8893667
692,ARUSHA,Monduli,Selela,SELELA,Government,-3.204815,35.945719
693,ARUSHA,Monduli,Monduli Mjini,SINONI,Government,-3.3186616,36.4510413
694,ARUSHA,Monduli,Makuyuni,SIRONGA,Government,-3.4457991,36.1936672
695,ARUSHA,Monduli,Meserani,SOKOINE,Government,-3.400471,36.462245
696,ARUSHA,Monduli,Migungani,ST. JUDE,Non-Government,-3.371428,35.867263
697,ARUSHA,Ngorongoro,Alailelai,ALAILELAI,Government,-2.9568549,35.7000966
698,ARUSHA,Ngorongoro,Arash,ARASH,Government,-2.4,35.5
699,ARUSHA,Ngorongoro,Digodigo,BISIKENE,Government,-2.147102,35.729123
700,ARUSHA,Ngorongoro,Orgosorok,BRIGHT,Non-Government,-2.05082,35.58084
701,ARUSHA,Ngorongoro,Nainokanoka,BULATI,Government,-2.9873733,35.803121
702,ARUSHA,Ngorongoro,Kirangi,DIGODIGO,Government,-2.14666,35.74325
703,ARUSHA,Ngorongoro,Digodigo,DIGODIGO GCCT,Non-Government,-2.1488,35.72868
704,ARUSHA,Ngorongoro,Pinyinyi,EMBAASI,Government,-2.29085,35.94852
705,ARUSHA,Ngorongoro,Enduleni,ENDULEN,Government,-3.2209716,35.2696964
706,ARUSHA,Ngorongoro,Engaresero,ENGARASERO,Government,-2.61072,35.87794
707,ARUSHA,Ngorongoro,Kakesio,EREKO,Government,-3.451708,35.021796
708,ARUSHA,Ngorongoro,Alaitolei,ESERE,Government,-3.2970283,35.1910483
709,ARUSHA,Ngorongoro,Naiyobi,ILTULELE,Government,-2.8473555,35.8452233
710,ARUSHA,Ngorongoro,Alaitolei,INDOINYO,Government,-3.242778,35.223932
711,ARUSHA,Ngorongoro,Nainokanoka,IRKEEPUS,Government,-3.0724892,35.6907548
712,ARUSHA,Ngorongoro,Olbalbal,IRKIPOR,Government,-2.9399166,35.52559499
713,ARUSHA,Ngorongoro,Oldonyosambu,JEMA,Government,-2.13722217,35.8837054
714,ARUSHA,Ngorongoro,Kakesio,KAKESIO,Government,-3.3797712,35.987556
715,ARUSHA,Ngorongoro,Naiyobi,KAPENJIRO,Government,-2.9303033,35.8906567
716,ARUSHA,Ngorongoro,Soitsambu,KIRTALO,Government,-1.961215,35.3631967
717,ARUSHA,Ngorongoro,Kirangi,KISANGIRO,Government,-2.1318688,35.7654514
718,ARUSHA,Ngorongoro,Olorien/Magaiduru,LEMISHIRI,Government,-2.12983,35.57855
719,ARUSHA,Ngorongoro,Orgosorok,LOLIONDO,Government,-2.05246,35.62398
720,ARUSHA,Ngorongoro,Orgosorok,LOLIONDO GCCT ENGLISH MEDIUM,Non-Government,-2.0577,35.61667
721,ARUSHA,Ngorongoro,Maalon,LOOSOITO,Government,-2.0876875,35.5621953
722,ARUSHA,Ngorongoro,Nainokanoka,LORESHO,Government,-3.2401147,35.4901053
723,ARUSHA,Ngorongoro,Olorien/Magaiduru,LORIEN,Government,-2.09479,35.63258
724,DODOMA,Bahi,Lamaiti,BANKOLO,Government,-5.833231,35.449566
725,ARUSHA,Ngorongoro,Olorien/Magaiduru,LUMO ENGLISH MEDIUM,Non-Government,-2.0571345,35.55622294
726,ARUSHA,Ngorongoro,Maalon,MAALON,Government,-2.24893,35.57877
727,ARUSHA,Ngorongoro,Samunge,MAGERI,Government,-2.1431,35.68008
728,ARUSHA,Ngorongoro,Ololosokwan,MAIROWA,Government,-1.870129,35.3699528
729,ARUSHA,Ngorongoro,Ngorongoro,MAKAO MAPYA,Government,-3.2424633,35.48374
730,ARUSHA,Ngorongoro,Malambo,MALAMBO,Government,-2.515623,35.60194
731,ARUSHA,Ngorongoro,Olorien/Magaiduru,MAMA SARA LOPOLUN,Government,-2.08414,35.54258
732,ARUSHA,Ngorongoro,Olorien/Magaiduru,MARIE CORRSON,Non-Government,-2.05636,35.55402
733,ARUSHA,Ngorongoro,Pinyinyi,MASUSU,Government,-2.2653516,35.8072833
734,ARUSHA,Ngorongoro,Sale,MDITO,Government,-2.22413,35.67881
735,ARUSHA,Ngorongoro,Sale,MGONGO,Government,-2.16098,35.66865
736,ARUSHA,Ngorongoro,Misigyo,MISIGIYO,Government,-3.20677037,35.3610128
737,ARUSHA,Ngorongoro,Ngorongoro,MOKILAL,Government,-3.3230646,35.4247039
738,ARUSHA,Ngorongoro,Soitsambu,MONDOROS,Government,-2.9017231,35.3700324
739,ARUSHA,Ngorongoro,Engaresero,MONICK,Government,-2.4978,35.89471
740,ARUSHA,Ngorongoro,Enguserosambu,NAAN,Government,-2.0183,35.77185
741,ARUSHA,Ngorongoro,Nainokanoka,NAINOKANOKA,Government,-3.0302011,35.6910901
742,ARUSHA,Ngorongoro,Naiyobi,NAIYOBI,Government,-2.8473555,35.8452233
743,ARUSHA,Ngorongoro,Malambo,NASERIAN ENGLISH MEDIUM,Non-Government,-2.513392,35.609813
744,ARUSHA,Ngorongoro,Enduleni,NDIAN,Government,-3.191785,35.278185
745,ARUSHA,Ngorongoro,Enguserosambu,NG'ARWA,Government,-2.05898,35.657
746,ARUSHA,Ngorongoro,Ngoile,NGOILE,Government,-3.0432502,35.480435
747,ARUSHA,Ngorongoro,Ololosokwan,NJOROI,Government,-1.85895,35.44213
748,ARUSHA,Ngorongoro,Arash,OLALAA,Government,-2.45943,35.534276
749,ARUSHA,Ngorongoro,Olbalbal,OLBALBAL,Government,-2.9834099,35.5072716
750,ARUSHA,Ngorongoro,Alailelai,OLCHANIOMELOCK,Government,-2.9567783,35.6611617
751,ARUSHA,Ngorongoro,Oldonyosambu,OLDONYOSAMBU,Government,-2.18217161,35.833735
752,ARUSHA,Ngorongoro,Olorien/Magaiduru,OLDONYOWAS,Government,-2.171431,35.568
753,ARUSHA,Ngorongoro,Oloipiri,OLOIPIRI,Government,-2.0599317,35.5870628
754,ARUSHA,Ngorongoro,Ngorongoro,OLOIROBI,Government,-3.2093383,35.4582016
755,ARUSHA,Ngorongoro,Ololosokwan,OLOLOSOKWAN,Government,-1.875433,35.337576
756,ARUSHA,Ngorongoro,Eyasi,OLPIRO,Government,-3.341943333,35.283255
757,ARUSHA,Ngorongoro,Enguserosambu,ORKIU,Government,-2.02321833,35.6209916
758,ARUSHA,Ngorongoro,Oloipiri,ORKUYAINE,Government,-2.0599317,35.5870628
759,ARUSHA,Ngorongoro,Arash,ORMANIE,Government,-2.4307932,35.4451461
760,ARUSHA,Ngorongoro,Kakesio,OSINONI,Government,-3.3634283,35.096261
761,ARUSHA,Ngorongoro,Enduleni,OSOTWA,Non-Government,-3.9716333,35.269696
762,ARUSHA,Ngorongoro,Pinyinyi,PINYINYI,Government,-2.3111353,35.9418617
763,ARUSHA,Ngorongoro,Piyaya,PIYAYA,Government,-2.5808033,35.5036533
764,ARUSHA,Ngorongoro,Digodigo,RERA,Government,-2.16032,35.740241
765,ARUSHA,Ngorongoro,Orgosorok,SAKALA,Government,-2.06106,35.605
766,ARUSHA,Ngorongoro,Sale,SALE,Government,-2.296375,35.6896583
767,ARUSHA,Ngorongoro,Alailelai,SENDUI,Government,-2.90092,35.75609499
768,ARUSHA,Ngorongoro,Soitsambu,SOITSAMBU,Government,-1.90809,35.42301
769,ARUSHA,Ngorongoro,Enduleni,ST.LUKE,Non-Government,-3.1391524,35.165628
770,ARUSHA,Ngorongoro,Oloipiri,SUKENYA,Government,-1.95868,35.5123
771,ARUSHA,Ngorongoro,Kirangi,TINAGA,Government,-2.0571372,35.5622512
772,ARUSHA,Ngorongoro,Malambo,TUMAINI,Government,-2.514531,35.577971
773,ARUSHA,Ngorongoro,Olorien/Magaiduru,WASSO,Government,-2.05455,35.564559
774,ARUSHA,Ngorongoro,Samunge,YASIMDITO,Government,-2.19591581,35.7016256
775,DAR ES SALAAM,Ilala MC,Upanga Magharibi,AL-MADRASATUS,Non-Government,-6.807195,39.27996
776,DAR ES SALAAM,Ilala MC,Chanika,BENEDICT,Non-Government,-6.5840994,39.055611
777,DAR ES SALAAM,Ilala MC,Kivule,BIN OMUKAMA,Non-Government,-6.5615321,39.0959543
778,DAR ES SALAAM,Ilala MC,Buyuni,BLUE NILE,Non-Government,-6.9761116,39.0905283
779,DAR ES SALAAM,Ilala MC,Kitunda,BOANERGES,Non-Government,-6.8951266,39.1866483
780,DAR ES SALAAM,Ilala MC,Kivule,BOMBAMBILI,Government,-6.5639876,39.0929876
781,DAR ES SALAAM,Ilala MC,Kivule,BRIGHT AFRICAN,Non-Government,-6.5615506,39.1145442
782,DAR ES SALAAM,Ilala MC,Buyuni,BUYUNI II,Government,-6.5717222,39.0603253
783,DAR ES SALAAM,Ilala MC,Msongola,CASEJES,Non-Government,-6.5755027,39.1102702
784,DAR ES SALAAM,Ilala MC,Chanika,CHANIKA,Government,-6.5851295,39.0524811
785,DAR ES SALAAM,Ilala MC,Kivule,DADDY,Non-Government,-6.5716533,39.1023792
786,DAR ES SALAAM,Ilala MC,Chanika,DAILY LIFE,Non-Government,-7.0020399,39.0625671
787,DAR ES SALAAM,Ilala MC,Buguruni,DECENT,Non-Government,-6.5702518,39.0549893
788,DAR ES SALAAM,Ilala MC,Kivule,EGALITARIAN,Non-Government,-6.9350339,39.1525953
789,DAR ES SALAAM,Ilala MC,Msongola,FULL GOSPEL,Non-Government,-7.0004473,39.09425375
790,DAR ES SALAAM,Ilala MC,Zingiziwa,GOGO,Government,-6.5938742,39.0437145
791,DAR ES SALAAM,Ilala MC,Pugu Station,GREEN HILL,Non-Government,-6.5314045,39.0713456
792,DAR ES SALAAM,Ilala MC,Zingiziwa,HEROES,Non-Government,-7.0145537,39.0523406
793,DAR ES SALAAM,Ilala MC,Gongolamboto,HIGHMOUNT,Non-Government,-6.5308561,39.0814789
794,DAR ES SALAAM,Ilala MC,Msongola,HOLLY FAMILY,Non-Government,-6.570134,39.0902011
795,DAR ES SALAAM,Ilala MC,Segerea,HOLY TRINITY,Non-Government,-6.8761829,39.1745558
796,DAR ES SALAAM,Ilala MC,Pugu,KABBY,Non-Government,-6.5545921,39.0714023
797,DAR ES SALAAM,Ilala MC,Kivule,KANANURA,Non-Government,-6.5620465,39.1030335
798,DAR ES SALAAM,Ilala MC,Msongola,KIBOGA,Government,-7.0354874,39.0714151
799,DAR ES SALAAM,Ilala MC,Majohe,KICHANGANI,Government,-6.5452386,39.0757167
800,DAR ES SALAAM,Ilala MC,Buyuni,KIGEZI,Government,-6.5819401,39.0704003
801,DAR ES SALAAM,Ilala MC,Pugu,KIGOGO FRESH,Government,-6.545261,39.06556027
802,DAR ES SALAAM,Ilala MC,Ukonga,KIGOLU,Non-Government,-6.86792145,39.19651242
803,DAR ES SALAAM,Ilala MC,Zingiziwa,KIMWANI,Government,-6.5937925,39.0434983
804,DAR ES SALAAM,Ilala MC,Pugu,KINYAMWEZI MPYA,Government,-6.936186,39.116866
805,DAR ES SALAAM,Ilala MC,Msongola,KITONGA,Government,-7.01087461,39.3934942
806,DAR ES SALAAM,Ilala MC,Kivule,KIVULE,Government,-6.5601839,39.1106553
807,DAR ES SALAAM,Ilala MC,Chanika,KWILA,Non-Government,-6.5952147,39.0752866
808,DAR ES SALAAM,Ilala MC,Msongola,LEDACTOM ACADEMY,Non-Government,-6.5916959,39.1050085
809,DAR ES SALAAM,Ilala MC,Zingiziwa,LUBAKAYA,Government,-7.012543,39.0511942
810,DAR ES SALAAM,Ilala MC,Chanika,LUKOONI,Government,-7.0023961,39.0531954
811,DAR ES SALAAM,Ilala MC,Zingiziwa,MAI,Non-Government,-7.0049593,39.0404947
812,DAR ES SALAAM,Ilala MC,Majohe,MAJOHE,Government,-6.5449051,39.075657
813,DAR ES SALAAM,Ilala MC,Pugu,MAJORITY VISION,Non-Government,-6.5607067,39.0713926
814,DAR ES SALAAM,Ilala MC,Msongola,MALEN,Non-Government,-7.0303235,39.0646491
815,DAR ES SALAAM,Ilala MC,Majohe,MARYLINN,Non-Government,-6.5441213,39.0912307
816,DAR ES SALAAM,Ilala MC,Msongola,MBONDOLE,Government,-6.581791,39.084227
817,DAR ES SALAAM,Ilala MC,Buyuni,MGEULE,Government,-6.5614702,39.0545204
818,DAR ES SALAAM,Ilala MC,Majohe,MGIKUMBE,Non-Government,-6.5627304,39.0842564
819,DAR ES SALAAM,Ilala MC,Majohe,MJI MPYA,Government,-6.5529101,39.0922383
820,DAR ES SALAAM,Ilala MC,Msongola,MSONGOLA,Government,-6.5815667,39.1040304
821,DAR ES SALAAM,Ilala MC,Buyuni,MTUKI HIGH LAND,Non-Government,-6.5717914,39.0603253
822,DAR ES SALAAM,Ilala MC,Msongola,MVUTI,Government,-7.0135357,39.0731963
823,DAR ES SALAAM,Ilala MC,Mzinga,MZINGA,Non-Government,-6.6910055,39.2119666
824,DAR ES SALAAM,Ilala MC,Mzinga,NURU ANGAVU,Non-Government,-6.919365,39.221018
825,DAR ES SALAAM,Ilala MC,Buyuni,NYEBURU,Government,-6.5748121,39.04276056
826,DAR ES SALAAM,Ilala MC,Zingiziwa,NZASA II,Government,-7.0136145,39.0256573
827,DAR ES SALAAM,Ilala MC,Pugu,PUGU BOMBANI,Government,-6.5355057,39.0733824
828,DAR ES SALAAM,Ilala MC,Pugu,PUGU KAJIUNGENI,Government,-6.5350512,39.0728426
829,DAR ES SALAAM,Ilala MC,Pugu Station,PUGU STATION,Government,-6.5319876,39.0704521
830,DAR ES SALAAM,Ilala MC,Kipawa,QUEENS',Non-Government,-6.5314077,39.0713492
831,DAR ES SALAAM,Ilala MC,Kariakoo,QUIBLATAIN,Non-Government,-6.8220035,39.2765928
832,DAR ES SALAAM,Ilala MC,Msongola,REAL HOPE,Non-Government,-7.0041672,39.08292
833,DAR ES SALAAM,Ilala MC,Gongolamboto,RUGWA,Non-Government,-6.5301865,39.0818515
834,DAR ES SALAAM,Ilala MC,Chanika,SAI,Non-Government,-7.0052403,39.0628107
835,DAR ES SALAAM,Ilala MC,Pugu,SAKILIGHT,Non-Government,-6.8996166,39.1251656
836,DAR ES SALAAM,Ilala MC,Kivule,SERENGETI,Government,-6.5604257,39.1104973
837,DAR ES SALAAM,Ilala MC,Ukonga,ST THERESA,Non-Government,-6.9231075,39.1034081
838,DAR ES SALAAM,Ilala MC,Vingunguti,ST. JOSEPH BENEDICT COTTOLENGO,Non-Government,-6.8472416,39.2209664
839,DODOMA,Bahi,Chali,CHALI IGONGO,Government,-6.2324471,35.2094489
840,DAR ES SALAAM,Ilala MC,Zingiziwa,THUKAD,Non-Government,-7.0025061,39.0413849
841,DAR ES SALAAM,Ilala MC,Chanika,TUNGINI,Government,-6.5853923,39.0521834
842,DAR ES SALAAM,Ilala MC,Majohe,UAMUZI,Government,-6.5404521,39.0857012
843,DAR ES SALAAM,Ilala MC,Gongolamboto,ULONGONI,Government,-6.8324961,39.2603483
844,DAR ES SALAAM,Ilala MC,Buyuni,UPENDO MONTESSORRY,Non-Government,-6.565237,39.0613803
845,DAR ES SALAAM,Ilala MC,Majohe,URSULINE,Non-Government,-6.5717914,39.0815132
846,DAR ES SALAAM,Ilala MC,Gongolamboto,USHINDI,Government,-6.8754253,39.1456333
847,DAR ES SALAAM,Ilala MC,Chanika,VIKONGORO,Government,-6.5845506,39.0636871
848,DAR ES SALAAM,Ilala MC,Majohe,VIWEGE,Government,-6.5604082,39.0741499
849,DAR ES SALAAM,Ilala MC,Zingiziwa,WINGA,Non-Government,-7.0040687,39.0441943
850,DAR ES SALAAM,Ilala MC,Msongola,YANGEYANGE,Government,-6.5817028,39.1034759
851,DAR ES SALAAM,Ilala MC,Majohe,YELLOW STONE,Non-Government,-6.551389,39.0758491
852,DAR ES SALAAM,Ilala MC,Chanika,YONGWE,Government,-6.5942407,39.0741388
853,DAR ES SALAAM,Ilala MC,Zingiziwa,ZINGIZIWA,Government,-7.024246,39.0514448
854,DAR ES SALAAM,Kigamboni MC,Kibada,ALGEBRA,Non-Government,-6.8791311,39.3444549
855,DAR ES SALAAM,Kigamboni MC,Mjimwema,AMKA,Non-Government,-6.82679,39.311131
856,DAR ES SALAAM,Kigamboni MC,Vijibweni,BETHANIA,Non-Government,-6.8712533,39.3292975
857,DAR ES SALAAM,Kigamboni MC,Kimbiji,BOHARI,Government,-7.032805,39.5311
858,DAR ES SALAAM,Kigamboni MC,Somangila,BRAINSTORM,Non-Government,-6.9551217,39.4484589
859,DAR ES SALAAM,Kigamboni MC,Pemba Mnazi,BUYUNI I,Government,-7.1282631,39.5229132
860,DAR ES SALAAM,Kigamboni MC,Vijibweni,CAPACITY BUILDING,Non-Government,-6.8539251,39.339986
861,DAR ES SALAAM,Kigamboni MC,Kisarawe II,CHEKENI MWASONGA,Government,-6.9883516,39.40515
862,DAR ES SALAAM,Kigamboni MC,Somangila,DAARUL-ARQAM,Non-Government,-6.9470187,39.4705503
863,DAR ES SALAAM,Kigamboni MC,Somangila,EXCEL,Non-Government,-6.8760883,39.40575
864,DAR ES SALAAM,Kigamboni MC,Tungi,FRAY LUIS AMIGO,Non-Government,-6.8365363,39.324775
865,DAR ES SALAAM,Kigamboni MC,Somangila,GEZAULOLE,Government,-6.8744861,39.4031018
866,DAR ES SALAAM,Kigamboni MC,Somangila,GLORIOUS,Non-Government,-6.89781,39.42979
867,DAR ES SALAAM,Kigamboni MC,Mjimwema,GOLDLAND,Non-Government,-6.8696342,39.3405451
868,DAR ES SALAAM,Kigamboni MC,Somangila,GOMVU,Government,-6.9382397,39.479328
869,DAR ES SALAAM,Kigamboni MC,Mjimwema,GRACE,Non-Government,-6.8684142,39.345958
870,DAR ES SALAAM,Kigamboni MC,Kisarawe II,GREENLAND,Non-Government,-6.959735,39.361418
871,DAR ES SALAAM,Kigamboni MC,Mjimwema,HANNAH BENNIE,Non-Government,-6.8667983,39.3656573
872,DAR ES SALAAM,Kigamboni MC,Somangila,HERI FANAKA,Non-Government,-6.8933246,39.4806335
873,DAR ES SALAAM,Kigamboni MC,Vijibweni,HOLINESS,Non-Government,-6.8508017,39.3160329
874,DAR ES SALAAM,Kigamboni MC,Vijibweni,IVY FIRST,Non-Government,-6.867727,39.3301821
875,DAR ES SALAAM,Kigamboni MC,Kibada,KIBADA,Government,-6.8973567,39.3378183
876,DAR ES SALAAM,Kigamboni MC,Mjimwema,KIBUGUMO,Government,-6.8704858,39.3789024
877,DAR ES SALAAM,Kigamboni MC,Pemba Mnazi,KICHANGANI,Government,-7.0520783,39.4429999
878,DAR ES SALAAM,Kigamboni MC,Kigamboni,KIGAMBONI,Government,-6.8253833,39.3131783
879,DAR ES SALAAM,Kigamboni MC,Kigamboni,KIGAMBONI ISLAMIC,Non-Government,-6.827202,39.306399
880,DAR ES SALAAM,Kigamboni MC,Kimbiji,KIJAKA,Government,-7.0102217,39.4838217
881,DAR ES SALAAM,Kigamboni MC,Kimbiji,KIMBIJI,Government,-6.990495,39.527725
882,DAR ES SALAAM,Kigamboni MC,Kisarawe II,KISARAWE II,Government,-6.9256019,39.3385592
883,DAR ES SALAAM,Kigamboni MC,Vijibweni,KISIWANI,Government,-6.8522416,39.3233666
884,DAR ES SALAAM,Kigamboni MC,Kigamboni,KIVUKONI,Government,-6.825137,39.312368
885,DAR ES SALAAM,Kigamboni MC,Tungi,MAHENGE,Non-Government,-6.8360965,39.3210978
886,DAR ES SALAAM,Kigamboni MC,Tungi,MALAIKA,Non-Government,-6.8310733,39.3417366
887,DAR ES SALAAM,Kigamboni MC,Mjimwema,MAWENI,Government,-6.8365282,39.3486468
888,DAR ES SALAAM,Kigamboni MC,Somangila,MBUTU,Government,-6.8933897,39.480356
889,DAR ES SALAAM,Kigamboni MC,Somangila,MEKA,Non-Government,-6.9098357,39.4388895
890,DAR ES SALAAM,Kigamboni MC,Kimbiji,MIKENGE,Government,-6.9909334,39.5289576
891,DAR ES SALAAM,Kigamboni MC,Kibada,MIZIMBINI,Government,-6.8804933,39.3394917
892,DAR ES SALAAM,Kigamboni MC,Mjimwema,MJIMWEMA,Government,-6.8484228,39.3555729
893,DAR ES SALAAM,Kigamboni MC,Kisarawe II,MKAMBA,Government,-7.0333987,39.4141995
894,DAR ES SALAAM,Kigamboni MC,Pemba Mnazi,MKUNDI,Government,-7.0704777,39.5255777
895,DAR ES SALAAM,Kigamboni MC,Pemba Mnazi,MUHIMBILI II,Government,-7.0073615,39.4701056
896,DAR ES SALAAM,Kigamboni MC,Somangila,MWONGOZO,Government,-6.8844254,39.4356654
897,DAR ES SALAAM,Kigamboni MC,Pemba Mnazi,PEMBA MNAZI,Government,-7.1596767,39.508195
898,DAR ES SALAAM,Kigamboni MC,Kigamboni,RAHALEO,Government,-6.8236916,39.3156783
899,DAR ES SALAAM,Kigamboni MC,Somangila,SANTA LUCAS,Non-Government,-6.9637216,39.452605
900,DAR ES SALAAM,Kigamboni MC,Kibada,ST JOSEPH THE WORKER,Non-Government,-6.897816,39.340565
901,DAR ES SALAAM,Kigamboni MC,Pemba Mnazi,TUNDWI SONGANI,Government,-7.0219439,39.4286818
902,DAR ES SALAAM,Kigamboni MC,Tungi,TUNGI,Government,-6.8399936,39.3186354
903,DAR ES SALAAM,Kigamboni MC,Kigamboni,UFUKONI,Government,-6.8268866,39.3110583
904,DAR ES SALAAM,Kigamboni MC,Mjimwema,UNGINDONI,Government,-6.8621463,39.3447791
905,DAR ES SALAAM,Kigamboni MC,Vijibweni,VIJIBWENI,Government,-6.8566042,39.3096632
906,DAR ES SALAAM,Kigamboni MC,Kisarawe II,VUMILIA UKOONI,Government,-6.9430116,39.4320416
907,DAR ES SALAAM,Kigamboni MC,Pemba Mnazi,YALE YALE PUNA,Government,-7.1058314,39.5276601
908,DAR ES SALAAM,Kinondoni MC,Bunju,ABEL MEMORIAL,Non-Government,-6.6900786,39.0919096
909,DAR ES SALAAM,Kinondoni MC,Magomeni,ALI HASSAN MWINYI,Government,-6.802972,39.257337
910,DAR ES SALAAM,Kinondoni MC,Kawe,ALI HASSAN MWINYI ELITE,Non-Government,-6.7441556,39.2368813
911,DAR ES SALAAM,Kinondoni MC,Msasani,AL-IRSHAAD,Non-Government,-6.802274,39.287294
912,DAR ES SALAAM,Kinondoni MC,Bunju,ALLY HAPI,Government,-6.802971,39.257337
913,DAR ES SALAAM,Kinondoni MC,Mwananyamala,ANSWAR,Non-Government,-6.793383,39.2624974
914,DAR ES SALAAM,Kinondoni MC,Wazo,ATLAS MADALE,Non-Government,-6.80217157,39.2085527
915,DAR ES SALAAM,Kinondoni MC,Kunduchi,BAHARI,Non-Government,-6.661973,39.205801
916,DAR ES SALAAM,Kinondoni MC,Kawe,BAJEVIRO,Non-Government,-6.7207152,39.225566
917,DAR ES SALAAM,Kinondoni MC,Wazo,BENACO,Government,-6.690522,39.177764
918,DAR ES SALAAM,Kinondoni MC,Bunju,BOKO,Government,-6.6334833,39.1538851
919,DAR ES SALAAM,Kinondoni MC,Bunju,BOKO NHC,Government,-6.6320011,39.1336921
920,DAR ES SALAAM,Kinondoni MC,Msasani,BONGOYO,Government,-6.7772096,39.2786791
921,DAR ES SALAAM,Kinondoni MC,Kunduchi,BRIGHT HOPE,Non-Government,-6.792354,39.2083284
922,DAR ES SALAAM,Kinondoni MC,Bunju,BUNJU 'A',Government,-6.619822,39.108828
923,DAR ES SALAAM,Kinondoni MC,Mabwepande,BUNJU B,Government,-6.633221,39.115855
924,DAR ES SALAAM,Kinondoni MC,Wazo,C.W KISSARO,Non-Government,-6.6829245,39.1444817
925,DAR ES SALAAM,Kinondoni MC,Kunduchi,CANOSA,Non-Government,-6.65533,39.184338
926,DAR ES SALAAM,Kinondoni MC,Makongo,CHANGANYIKENI,Government,-6.7640866,39.1897699
927,DAR ES SALAAM,Kinondoni MC,Makongo,CITY ACADEMY,Non-Government,-6.7586992,39.2142391
928,DAR ES SALAAM,Kinondoni MC,Bunju,DAYSTAR,Non-Government,-6.811502,39.278958
929,DAR ES SALAAM,Kinondoni MC,Mabwepande,DEBUGENE,Non-Government,-6.6096099,39.0968695
930,DAR ES SALAAM,Kinondoni MC,Kigogo,DEEP SEA,Non-Government,-6.815845,39.258722
931,DAR ES SALAAM,Kinondoni MC,Msasani,DRIVE INN,Non-Government,-6.772795,39.266496
932,DAR ES SALAAM,Kinondoni MC,Mikocheni,EAST AFRICA,Non-Government,-6.750405,39.239248
933,DAR ES SALAAM,Kinondoni MC,Kunduchi,EDUCATION PLUS,Non-Government,-6.645746,39.176311
934,DAR ES SALAAM,Kinondoni MC,Wazo,ELESIA CHRISTABEL,Non-Government,-6.7076566,39.1449116
935,DAR ES SALAAM,Kinondoni MC,Bunju,FAITH,Non-Government,-6.6163108,39.1141986
936,DAR ES SALAAM,Kinondoni MC,Kawe,FEZA,Non-Government,-6.7356588,39.2272317
937,DAR ES SALAAM,Kinondoni MC,Kigogo,GILMANRUTIHINDA,Government,-6.816479,39.256849
938,DAR ES SALAAM,Kinondoni MC,Mabwepande,GODENI,Non-Government,-6.810984,39.280642
939,DAR ES SALAAM,Kinondoni MC,Kigogo,GONZAGA,Non-Government,-6.819709,39.235109
940,DAR ES SALAAM,Kinondoni MC,Msasani,GOOD SAMARITAN,Non-Government,-6.756116,39.279779
941,DAR ES SALAAM,Kinondoni MC,Bunju,GOSHENI,Non-Government,-6.6203745,39.0611303
942,DAR ES SALAAM,Kinondoni MC,Wazo,GREEN ACRES,Non-Government,-6.697592,39.197598
943,DAR ES SALAAM,Kinondoni MC,Hananasif,HANANASIF,Government,-6.796615,39.26988
944,DAR ES SALAAM,Kinondoni MC,Magomeni,HAZINA,Non-Government,-6.8000824,39.2604392
945,DAR ES SALAAM,Kinondoni MC,Tandale,HEKIMA,Government,-6.796766,39.241468
946,DAR ES SALAAM,Kinondoni MC,Mbweni,HOPE & JOY,Non-Government,-6.5811427,39.1271642
947,DAR ES SALAAM,Kinondoni MC,Kunduchi,JANGWANI BEACH,Government,-6.70131,39.2208918
948,DAR ES SALAAM,Kinondoni MC,Kawe,KAWE A,Government,-6.735662,39.227233
949,DAR ES SALAAM,Kinondoni MC,Kawe,KAWE B,Government,-6.73454,39.226969
950,DAR ES SALAAM,Kinondoni MC,Wazo,KELAND,Non-Government,-6.699671,39.185057
951,DAR ES SALAAM,Kinondoni MC,Bunju,KHERI MISSINGA,Government,-6.618733,39.109123
952,DAR ES SALAAM,Kinondoni MC,Kigogo,KIGOGO,Government,-6.817869,39.249099
953,DAR ES SALAAM,Kinondoni MC,Kijitonyama,KIJITONYAMA,Government,-6.778611,39.240311
954,DAR ES SALAAM,Kinondoni MC,Kijitonyama,KIJITONYAMA KISIWANI,Government,-6.784779,39.237288
955,DAR ES SALAAM,Kinondoni MC,Mbezi Juu,KILIMANI ENG,Non-Government,-6.727034,39.203553
956,DAR ES SALAAM,Kinondoni MC,Wazo,KINGDOM,Non-Government,-6.677628,39.176105
957,DAR ES SALAAM,Kinondoni MC,Wazo,KISAUKE,Government,-6.701344,39.134298
958,DAR ES SALAAM,Kinondoni MC,Mbweni,KIUMBAGENI,Government,-6.6316169,39.188174
959,DAR ES SALAAM,Kinondoni MC,Kinondoni,KUMBUKUMBU,Government,-6.779975,39.249796
960,DAR ES SALAAM,Kinondoni MC,Kunduchi,KUNDUCHI,Government,-6.664216,39.191106
961,DAR ES SALAAM,Kinondoni MC,Wazo,LACHISH,Non-Government,-6.6734264,39.1726836
962,DAR ES SALAAM,Kinondoni MC,Kawe,LIBERMANN,Non-Government,-6.710732,39.221448
963,DAR ES SALAAM,Kinondoni MC,Wazo,LIVINGSTONE,Non-Government,-6.6853247,39.1495444
964,DAR ES SALAAM,Kinondoni MC,Bunju,LOCEE,Non-Government,-6.621667,39.154998
965,DAR ES SALAAM,Kinondoni MC,Makongo,LONDA,Government,-6.7369787,39.2088064
966,DAR ES SALAAM,Kinondoni MC,Kawe,LUGALO,Government,-6.750084,39.226953
967,DAR ES SALAAM,Kinondoni MC,Wazo,MAARIFA ISLAMIC,Non-Government,-6.6656614,39.1549032
968,DAR ES SALAAM,Kinondoni MC,Mabwepande,MABWEPANDE,Government,-6.6121246,39.0992313
969,DAR ES SALAAM,Kinondoni MC,Magomeni,MAGOMENI,Government,-6.802728,39.256706
970,DAR ES SALAAM,Kinondoni MC,Kunduchi,MAKINI,Non-Government,-6.696699,39.225283
971,DAR ES SALAAM,Kinondoni MC,Makongo,MAKONGO,Government,-6.759927,39.197569
972,DAR ES SALAAM,Kinondoni MC,Makumbusho,MAKUMBUSHO,Government,-6.780734,39.249077
973,DAR ES SALAAM,Kinondoni MC,Kijitonyama,MAPAMBANO,Government,-6.7758583,39.2303116
974,DAR ES SALAAM,Kinondoni MC,Kigogo,MAPINDUZI,Government,-6.816982,39.258167
975,DAR ES SALAAM,Kinondoni MC,Kawe,MBEZI BEACH,Government,-6.7333991,39.2266721
976,DAR ES SALAAM,Kinondoni MC,Mbezi Juu,MBEZI JUU,Government,-6.7149271,39.2025971
977,DAR ES SALAAM,Kinondoni MC,Mbezi Juu,MBEZI NDUMBWI,Government,-6.8239825,39.1335549
978,DAR ES SALAAM,Kinondoni MC,Mabwepande,MBOPO,Government,-6.694624,39.106546
979,DAR ES SALAAM,Kinondoni MC,Msasani,MBUYUNI,Government,-6.7801512,39.2744654
980,DAR ES SALAAM,Kinondoni MC,Mbweni,MBWENI,Government,-6.641178,39.194267
981,DAR ES SALAAM,Kinondoni MC,Makumbusho,MCHANGANI,Government,-6.791265,39.2506216
982,DAR ES SALAAM,Kinondoni MC,Mikocheni,MIKOCHENI,Government,-6.770296,39.256136
983,DAR ES SALAAM,Kinondoni MC,Mikocheni,MIKOCHENI ISLAMIC,Non-Government,-6.757466,39.244444
984,DAR ES SALAAM,Kinondoni MC,Mzimuni,MIKUMI,Government,-6.811988,39.258394
985,DAR ES SALAAM,Kinondoni MC,Kunduchi,MILESTONES,Non-Government,-6.6442735,39.1976099
986,DAR ES SALAAM,Kinondoni MC,Makumbusho,MINAZINI,Government,-6.7867238,39.2501786
987,DAR ES SALAAM,Kinondoni MC,Kawe,MIRAMBO,Government,-6.753994,39.229329
988,DAR ES SALAAM,Kinondoni MC,Wazo,MIVUMONI,Government,-6.691135,39.14966167
989,DAR ES SALAAM,Kinondoni MC,Mabwepande,MJI MPYA,Government,-6.926967,39.157046
990,DAR ES SALAAM,Kinondoni MC,Hananasif,MKUNGUNI,Government,-6.7961242,39.2699723
991,DAR ES SALAAM,Kinondoni MC,Kigogo,MKWAWA,Government,-6.8172864,39.249755
992,DAR ES SALAAM,Kinondoni MC,Bunju,MOGA,Non-Government,-6.607507,39.1125143
993,DAR ES SALAAM,Kinondoni MC,Wazo,MOTHER OF MERCY,Non-Government,-6.901727,39.15831
994,DAR ES SALAAM,Kinondoni MC,Mbezi Juu,MOUNT KIBO,Non-Government,-6.7259832,39.2062876
995,DAR ES SALAAM,Kinondoni MC,Bunju,MOUNT SINAI,Non-Government,-6.6294587,39.1211306
996,DAR ES SALAAM,Kinondoni MC,Msasani,MSASANI A,Government,-6.76181,39.26788
997,DAR ES SALAAM,Kinondoni MC,Msasani,MSASANI B,Government,-6.76201,39.26861
998,DAR ES SALAAM,Kinondoni MC,Msasani,MSASANI ISLAMIC,Non-Government,-6.7713031,39.2788951
999,DAR ES SALAAM,Kinondoni MC,Mwananyamala,MSISIRI,Government,-6.7881947,39.2610999
1000,DAR ES SALAAM,Kinondoni MC,Mwananyamala,MSISIRI 'B',Government,-6.7838116,39.2550783
1001,DAR ES SALAAM,Kinondoni MC,Mbweni,MT. EVEREST,Non-Government,-6.6203274,39.1437002
1002,DAR ES SALAAM,Kinondoni MC,Bunju,MTAMBANI,Government,-6.633427,39.152767
1003,DAR ES SALAAM,Kinondoni MC,Kinondoni,MTAMBANI ISLAMIC,Non-Government,-6.787458,39.263828
1004,DAR ES SALAAM,Kinondoni MC,Kunduchi,MTONGANI,Government,-6.6726616,39.2088916
1005,DAR ES SALAAM,Kinondoni MC,Tandale,MUHALITAN,Government,-6.789872,39.235196
1006,DAR ES SALAAM,Kinondoni MC,Makumbusho,MWANANYAMALA 'B',Government,-6.786135,39.250213
1007,DAR ES SALAAM,Kinondoni MC,Makumbusho,MWANANYAMALA KISIWANI,Government,-6.790915,39.250863
1008,DAR ES SALAAM,Kinondoni MC,Kijitonyama,MWANGAZA,Government,-6.7858321,39.236759
1009,DAR ES SALAAM,Kinondoni MC,Kijitonyama,MWENGE,Government,-6.769582,39.233492
1010,DAR ES SALAAM,Kinondoni MC,Kawe,MWL. J. K. NYERERE,Non-Government,-6.7244771,39.2221088
1011,DAR ES SALAAM,Kinondoni MC,Ndugumbi,MWL. NYERERE,Government,-6.8113561,39.2554836
1012,DAR ES SALAAM,Kinondoni MC,Mwananyamala,MWONGOZO,Government,-6.7797775,39.262062
1013,DAR ES SALAAM,Kinondoni MC,Mzimuni,MZIMUNI,Government,-6.811397,39.257474
1014,DAR ES SALAAM,Kinondoni MC,Makongo,NAITEDAM,Non-Government,-6.7579854,39.2094835
1015,DAR ES SALAAM,Kinondoni MC,Wazo,NAKASANGWE,Government,-6.6685966,39.1266483
1016,DAR ES SALAAM,Kinondoni MC,Ndugumbi,NDUGUMBI,Government,-6.803054,39.250249
1017,DAR ES SALAAM,Kinondoni MC,Mbweni,NEW ERA,Non-Government,-6.6121488,39.1371483
1018,DAR ES SALAAM,Kinondoni MC,Bunju,NEW HAZINA,Non-Government,-6.621002,39.114609
1019,DAR ES SALAAM,Kinondoni MC,Wazo,NURU NJEMA,Non-Government,-6.632659,39.132874
1020,DAR ES SALAAM,Kinondoni MC,Msasani,OYSTERBAY,Government,-6.777006,39.278128
1021,DAR ES SALAAM,Kinondoni MC,Msasani,PENINSULA,Non-Government,-6.751534,39.276667
1022,DAR ES SALAAM,Kinondoni MC,Kunduchi,PIUS MSEKWA,Government,-6.664235,39.190353
1023,DAR ES SALAAM,Kinondoni MC,Bunju,PRESTIGE,Non-Government,-6.62789211,39.1258699
1024,DAR ES SALAAM,Kinondoni MC,Kunduchi,PRINCESS GATE,Non-Government,-6.672669,39.185574
1025,DAR ES SALAAM,Kinondoni MC,Kunduchi,PWANI,Government,-6.658204,39.196623
1026,DAR ES SALAAM,Kinondoni MC,Mabwepande,REDAVE,Non-Government,-6.690273,39.104197
1027,DAR ES SALAAM,Kinondoni MC,Kawe,RIGHTWAY,Non-Government,-6.8100156,39.1011307
1028,DAR ES SALAAM,Kinondoni MC,Kunduchi,ROYAL ELITE,Non-Government,-6.694632,39.218642
1029,DAR ES SALAAM,Kinondoni MC,Wazo,SALASALA,Government,-6.688077,39.192888
1030,DAR ES SALAAM,Kinondoni MC,Mzimuni,SHEKHAT HISSA,Non-Government,-6.8109847,39.2806425
1031,DAR ES SALAAM,Kinondoni MC,Kijitonyama,SHEKILANGO,Government,-6.7739399,39.2309814
1032,DAR ES SALAAM,Kinondoni MC,Mikocheni,SHREE HINDU MANDAL,Non-Government,-6.772214,39.247674
1033,DAR ES SALAAM,Kinondoni MC,Bunju,SIYA MODERN,Non-Government,-6.6332208,39.1158553
1034,DAR ES SALAAM,Kinondoni MC,Kunduchi,SKY,Non-Government,-6.6508772,39.1759862
1035,DAR ES SALAAM,Kinondoni MC,Kawe,ST. ALOYSIUS,Non-Government,-6.710251,39.217471
1036,DAR ES SALAAM,Kinondoni MC,Makongo,ST. COLUMBAS,Non-Government,-6.7510508,39.1852257
1037,DAR ES SALAAM,Kinondoni MC,Mikocheni,ST. FLORENCE,Non-Government,-6.7672252,39.2532142
1038,DAR ES SALAAM,Kinondoni MC,Kunduchi,ST. JOSEPH,Non-Government,-6.6963867,39.2070484
1039,DAR ES SALAAM,Kinondoni MC,Bunju,ST. MARIA SALOME,Non-Government,-6.6302158,39.1377075
1040,DAR ES SALAAM,Kinondoni MC,Mbezi Juu,ST. MARYS,Non-Government,-6.721155,39.204763
1041,DAR ES SALAAM,Kinondoni MC,Kunduchi,ST. THOMAS,Non-Government,-6.653532,39.201216
1042,DAR ES SALAAM,Kinondoni MC,Kinondoni,SUNRAY,Non-Government,-6.785117,39.270895
1043,DAR ES SALAAM,Kinondoni MC,Mikocheni,SUNRISE,Non-Government,-6.776018,39.260641
1044,DAR ES SALAAM,Kinondoni MC,Tandale,TANDALE,Government,-6.796882,39.243026
1045,DAR ES SALAAM,Kinondoni MC,Tandale,TANDALE MAGH.,Government,-6.7913219,39.2365826
1046,DAR ES SALAAM,Kinondoni MC,Mabwepande,TEJ SCHOOL,Non-Government,-6.6054613,39.1061132
1047,DAR ES SALAAM,Kinondoni MC,Kawe,TUMAINI,Government,-6.7410171,39.2256971
1048,DAR ES SALAAM,Kinondoni MC,Mabwepande,TUNAWAPENDA WATOTO,Non-Government,-6.628134,39.081859
1049,DAR ES SALAAM,Kinondoni MC,Ndugumbi,TURIANI,Government,-6.802448,39.255482
1050,DAR ES SALAAM,Kinondoni MC,Kawe,UKWAMANI,Government,-6.7334166,39.2268533
1051,DAR ES SALAAM,Kinondoni MC,Kunduchi,UNUNIO,Government,-6.632418,39.179138
1052,DAR ES SALAAM,Kinondoni MC,Mikocheni,USHINDI,Government,-6.754711,39.239986
1053,DAR ES SALAAM,Kinondoni MC,Wazo,UWATA MADALE,Non-Government,-6.700744,39.126691
1054,DAR ES SALAAM,Kinondoni MC,Kawe,VALENTINE,Non-Government,-6.7210001,39.2130637
1055,DAR ES SALAAM,Kinondoni MC,Makumbusho,VICTORIA,Government,-6.780049,39.249955
1056,DAR ES SALAAM,Kinondoni MC,Wazo,WAZO HILL,Government,-6.674453,39.169812
1057,DAR ES SALAAM,Temeke MC,Tandika,A.H. MWINYI,Government,-6.8675441,39.2602931
1058,DAR ES SALAAM,Temeke MC,Toangoma,AGAPE MBAGALA,Non-Government,-6.937277,39.281668
1059,DAR ES SALAAM,Temeke MC,Miburani,AL QAADIRIYA,Non-Government,-6.8606516,39.2667466
1060,DAR ES SALAAM,Temeke MC,Temeke,ALHIKMA,Non-Government,-6.855532,39.256358
1061,DAR ES SALAAM,Temeke MC,Buza,AMANI,Government,-6.8915461,39.2291972
1062,DAR ES SALAAM,Temeke MC,Kijichi,ANLEX,Non-Government,-6.87800071,39.2896482
1063,DAR ES SALAAM,Temeke MC,Makangarawe,ANNETTE B,Non-Government,-6.8825496,39.2508
1064,DAR ES SALAAM,Temeke MC,Toangoma,ASSWIDDIQ,Non-Government,-6.9452833,39.2943883
1065,DAR ES SALAAM,Temeke MC,Azimio,AZIMIO,Government,-6.8764567,39.2609733
1066,DAR ES SALAAM,Temeke MC,Temeke,BAHATI,Government,-6.8518536,39.2605213
1067,DAR ES SALAAM,Temeke MC,Miburani,BARRACKS,Government,-6.8481683,39.2797372
1068,DAR ES SALAAM,Temeke MC,Tandika,BILAL COMPREHENSIVE,Non-Government,-6.8639231,39.2594771
1069,DAR ES SALAAM,Temeke MC,Mtoni,BOKORANI,Government,-6.8724923,39.2739153
1070,DAR ES SALAAM,Temeke MC,Yombo vituka,BRAINTRUST,Non-Government,-6.8916601,39.2222311
1071,DAR ES SALAAM,Temeke MC,Buza,BUZA,Government,-6.8912883,39.2300106
1072,DAR ES SALAAM,Temeke MC,Kijichi,BWAWANI,Government,-6.8863482,39.2821952
1073,DAR ES SALAAM,Temeke MC,Chamazi,CHAMAZI,Government,-6.9519071,39.2274801
1074,DAR ES SALAAM,Temeke MC,Chamazi,CHAMAZI ISLAMIC,Non-Government,-6.9472203,39.2167961
1075,DAR ES SALAAM,Temeke MC,Miburani,CHANG'OMBE,Government,-6.8491681,39.2724182
1076,DAR ES SALAAM,Temeke MC,Kilungule,CHARAMBE,Government,-6.9236581,39.2540511
1077,DAR ES SALAAM,Temeke MC,Chamazi,CHE-MBANDE ISLAMIC,Non-Government,-6.9728321,39.2098901
1078,DAR ES SALAAM,Temeke MC,Kilungule,CHEMCHEM,Government,-6.9237061,39.2541011
1079,DAR ES SALAAM,Temeke MC,Toangoma,COMPLEX,Non-Government,-6.9364331,39.2772432
1080,DAR ES SALAAM,Temeke MC,Toangoma,CORNERSTONE,Non-Government,-6.913709,39.34021
1081,DAR ES SALAAM,Temeke MC,Kijichi,DORIS,Non-Government,-6.8757283,39.2928033
1082,DAR ES SALAAM,Temeke MC,Chamazi,DYNAMIC,Non-Government,-6.9324761,39.2368221
1083,DAR ES SALAAM,Temeke MC,Mianzini,EPIPHANY,Non-Government,-6.9366729,39.2415739
1084,DAR ES SALAAM,Temeke MC,Chamazi,FAHARI,Non-Government,-6.95831,39.23509
1085,DAR ES SALAAM,Temeke MC,Mianzini,FARAJA,Government,-6.9438182,39.2576908
1086,DAR ES SALAAM,Temeke MC,Tandika,GOODSHEPHERD,Non-Government,-6.8607051,39.25658
1087,DAR ES SALAAM,Temeke MC,Mbagala,GREAT VISION,Non-Government,-6.8976601,39.2669581
1088,DAR ES SALAAM,Temeke MC,Mianzini,HEKIMA,Non-Government,-6.945063,39.3244911
1089,DAR ES SALAAM,Temeke MC,Kijichi,HOLY CROSS,Non-Government,-6.8805357,39.2901824
1090,DAR ES SALAAM,Temeke MC,Mianzini,HOLY UNION SISTER,Non-Government,-6.9434643,39.2466197
1091,DAR ES SALAAM,Temeke MC,Miburani,JESHI LA WOKOVU,Government,-6.8547267,39.2772987
1092,DAR ES SALAAM,Temeke MC,Makangarawe,JITIHADA,Government,-6.875135,39.250614
1093,DAR ES SALAAM,Temeke MC,Toangoma,JOYLAND,Non-Government,-6.9349101,39.3308571
1094,DAR ES SALAAM,Temeke MC,Kiburugwa,JUHUDI,Government,-6.8989251,39.2545722
1095,DAR ES SALAAM,Temeke MC,Kijichi,KAMO,Non-Government,-6.9032833,39.2949436
1096,DAR ES SALAAM,Temeke MC,Buza,KARUME,Government,-6.88798,39.2528444
1097,DAR ES SALAAM,Temeke MC,Toangoma,KATAVI,Non-Government,-6.9370874,39.3460049
1098,DAR ES SALAAM,Temeke MC,Chamazi,KAZAURA,Non-Government,-6.9750271,39.2043721
1099,DAR ES SALAAM,Temeke MC,Keko,KEKO MAGURUMBASI,Government,-6.8350294,39.2719481
1100,DAR ES SALAAM,Temeke MC,Keko,KEKO MWANGA,Government,-6.8360451,39.2753691
1101,DAR ES SALAAM,Temeke MC,Miburani,KIBASILA,Government,-6.8531113,39.2674312
1102,DAR ES SALAAM,Temeke MC,Mbagala Kuu,KIBONDEMAJI,Government,-6.9119712,39.2749262
1103,DAR ES SALAAM,Temeke MC,Kiburugwa,KIBURUGWA,Government,-6.9110451,39.2528514
1104,DAR ES SALAAM,Temeke MC,Kilakala,KIGUNGA,Government,-6.87518,39.245859
1105,DAR ES SALAAM,Temeke MC,Kilakala,KILAKALA,Government,-6.8749841,39.2459223
1106,DAR ES SALAAM,Temeke MC,Charambe,KILAMBA,Government,-6.9244833,39.2577355
1107,DAR ES SALAAM,Temeke MC,Tandika,KILIMAHEWA,Government,-6.872559,39.256776
1108,DAR ES SALAAM,Temeke MC,Kiburugwa,KINGUGI,Government,-6.9117792,39.2534193
1109,DAR ES SALAAM,Temeke MC,Kurasini,KIUNGANI,Government,-6.854864,39.284199
1110,DAR ES SALAAM,Temeke MC,Mbagala,KIZINGA,Government,-6.9023791,39.2662191
1111,DAR ES SALAAM,Temeke MC,Mbagala Kuu,KIZUIANI,Government,-6.9118701,39.2755331
1112,DAR ES SALAAM,Temeke MC,Toangoma,KONGOWE,Government,-6.9441071,39.2805672
1113,DAR ES SALAAM,Temeke MC,Toangoma,KONGOWE ISLAMIC,Non-Government,-6.9390006,39.2770243
1114,DAR ES SALAAM,Temeke MC,Mbagala Kuu,LASSANA,Non-Government,-6.9070912,39.2794591
1115,DAR ES SALAAM,Temeke MC,Miburani,LIKWATI,Government,-6.8582432,39.2690431
1116,DAR ES SALAAM,Temeke MC,Chamazi,LILIES,Non-Government,-6.9585691,39.2215071
1117,DAR ES SALAAM,Temeke MC,Temeke,LIONESS MIBURANI,Government,-6.8640333,39.2624216
1118,DAR ES SALAAM,Temeke MC,Tandika,MABATINI,Government,-6.8619621,39.2557661
1119,DAR ES SALAAM,Temeke MC,Temeke,MADENGE,Government,-6.8555161,39.2593731
1120,DAR ES SALAAM,Temeke MC,Mbagala Kuu,MAENDELEO,Government,-6.9030421,39.2861081
1121,DAR ES SALAAM,Temeke MC,Mianzini,MAJIMATITU,Government,-6.937702,39.247641
1122,DAR ES SALAAM,Temeke MC,Yombo vituka,MAMAISARA,Non-Government,-6.8827366,39.2354683
1123,DAR ES SALAAM,Temeke MC,Kilungule,MARTEN LUMBANGA,Government,-6.9304471,39.2438823
1124,DAR ES SALAAM,Temeke MC,Sandali,MARY OUR HELP,Non-Government,-6.8575851,39.2481691
1125,DAR ES SALAAM,Temeke MC,Toangoma,MARYDESTINY,Non-Government,-6.9419791,39.3326311
1126,DAR ES SALAAM,Temeke MC,Kijichi,MATER DEI,Non-Government,-6.9029354,39.2905458
1127,DAR ES SALAAM,Temeke MC,Mbagala,MBAGALA,Government,-6.9035471,39.2647121
1128,DAR ES SALAAM,Temeke MC,Mbagala,MBAGALA ANNEX,Government,-6.9037201,39.2649681
1129,DAR ES SALAAM,Temeke MC,Mbagala Kuu,MBAGALA KUU,Government,-6.9026499,39.2848551
1130,DAR ES SALAAM,Temeke MC,Chamazi,MBANDE,Government,-6.9800351,39.2124142
1131,DAR ES SALAAM,Temeke MC,Kibondemaji,MCHIKICHINI,Government,-6.9170893,39.2701765
1132,DAR ES SALAAM,Temeke MC,Kijichi,MGENINANI,Government,-6.8923174,39.3082189
1133,DAR ES SALAAM,Temeke MC,Miburani,MGULANI,Government,-6.8484364,39.2754378
1134,DAR ES SALAAM,Temeke MC,Mianzini,MIANZINI,Government,-6.9407999,39.2660216
1135,DAR ES SALAAM,Temeke MC,Toangoma,MIKWAMBE,Government,-6.9219032,39.3408123
1136,DAR ES SALAAM,Temeke MC,Kurasini,MIVINJENI,Government,-6.840133,39.2899
1137,DAR ES SALAAM,Temeke MC,Azimio,MJIMPYA,Government,-6.8674012,39.2670714
1138,DAR ES SALAAM,Temeke MC,Chamazi,MKOMBOZI MONTESSORI,Non-Government,-6.931911,39.2329
1139,DAR ES SALAAM,Temeke MC,Yombo vituka,MONTFORT,Non-Government,-6.8742703,39.2259702
1140,DAR ES SALAAM,Temeke MC,Azimio,MORINGE,Government,-6.8784271,39.2642451
1141,DAR ES SALAAM,Temeke MC,Yombo vituka,MOSES,Non-Government,-6.8768621,39.2270781
1142,DAR ES SALAAM,Temeke MC,Chamazi,MSUFINI,Government,-6.9522221,39.2280841
1143,DAR ES SALAAM,Temeke MC,Mtoni,MTONI,Government,-6.8723727,39.2745853
1144,DAR ES SALAAM,Temeke MC,Kijichi,MTONI KIJICHI,Government,-6.8870183,39.2809232
1145,DAR ES SALAAM,Temeke MC,Mtoni,MTONI SABASABA,Government,-6.8676214,39.2809291
1146,DAR ES SALAAM,Temeke MC,Kilakala,MUSITAMBI,Non-Government,-6.878181,39.246275
1147,DAR ES SALAAM,Temeke MC,Azimio,MWANGAZA,Government,-6.8761244,39.2609701
1148,DAR ES SALAAM,Temeke MC,Mianzini,MWANGAZA ENG. MED.,Non-Government,-6.9400766,39.2566651
1149,DAR ES SALAAM,Temeke MC,Toangoma,MZINGA,Government,-6.9426555,39.2807755
1150,DAR ES SALAAM,Temeke MC,Kilungule,NZASA,Government,-6.9249381,39.2534111
1151,DAR ES SALAAM,Temeke MC,Makangarawe,OASIS,Non-Government,-6.8841516,39.2461983
1152,DAR ES SALAAM,Temeke MC,Toangoma,OCEAN VIEW,Non-Government,-6.9433283,39.3514033
1153,DAR ES SALAAM,Temeke MC,Chamazi,PACIFIC,Non-Government,-6.9363201,39.2160111
1154,DAR ES SALAAM,Temeke MC,Toangoma,POST MODERN,Non-Government,-6.8639231,39.281668
1155,DAR ES SALAAM,Temeke MC,Toangoma,RAINBOW,Non-Government,-6.9373374,39.313377
1156,DAR ES SALAAM,Temeke MC,Kibondemaji,RANGITATU,Government,-6.9211101,39.2719871
1157,DAR ES SALAAM,Temeke MC,Chamazi,RUFU,Government,-6.9895202,39.2176881
1158,DAR ES SALAAM,Temeke MC,Temeke,RUVUMA,Government,-6.8548233,39.2588217
1159,DAR ES SALAAM,Temeke MC,Chamazi,RUWIJA,Non-Government,-6.9291743,39.2380534
1160,DAR ES SALAAM,Temeke MC,Buza,SACRED HEART,Non-Government,-6.8894231,39.2252322
1161,DAR ES SALAAM,Temeke MC,Chamazi,SAKU,Government,-6.9223536,39.23289312
1162,DAR ES SALAAM,Temeke MC,Chamazi,SALAAM,Non-Government,-6.9557661,39.2261982
1163,DAR ES SALAAM,Temeke MC,Sandali,SANDALI,Government,-6.8560616,39.2447736
1164,DAR ES SALAAM,Temeke MC,Chamazi,SHALOM,Non-Government,-6.9508142,39.2160421
1165,DAR ES SALAAM,Temeke MC,Azimio,SOKOINE,Government,-6.8780471,39.2643121
1166,DAR ES SALAAM,Temeke MC,Kibondemaji,ST MARY'S,Non-Government,-6.9270356,39.2720266
1167,DAR ES SALAAM,Temeke MC,Chang'ombe,ST THERESE,Non-Government,-6.8523961,39.2640021
1168,DAR ES SALAAM,Temeke MC,Buza,STABELLA,Non-Government,-6.896335,39.2405317
1169,DAR ES SALAAM,Temeke MC,Miburani,TAIFA,Government,-6.8478653,39.2753412
1170,DAR ES SALAAM,Temeke MC,Tandika,TANDIKA,Government,-6.8670501,39.2603771
1171,DAR ES SALAAM,Temeke MC,Toangoma,TANEEM,Non-Government,-6.9261469,39.3044677
1172,DAR ES SALAAM,Temeke MC,Temeke,TEMEKE,Government,-6.851533,39.260594
1173,DAR ES SALAAM,Temeke MC,Toangoma,TEMEKE SDA,Non-Government,-6.9199441,39.3307541
1174,DAR ES SALAAM,Temeke MC,Toangoma,TOANGOMA,Government,-6.935182,39.310944
1175,DAR ES SALAAM,Temeke MC,Azimio,TWIGA,Government,-6.8783762,39.2636231
1176,DAR ES SALAAM,Temeke MC,Yombo vituka,UKOMBOZI,Government,-6.8746033,39.2299733
1177,DAR ES SALAAM,Temeke MC,Temeke,UMOJA,Government,-6.8643411,39.262431
1178,DAR ES SALAAM,Temeke MC,Chamazi,UNIQUE ACADEMY,Non-Government,-6.89330501,39.2035231
1179,DAR ES SALAAM,Temeke MC,Chamazi,UNITY,Non-Government,-6.9811881,39.2189771
1180,DAR ES SALAAM,Temeke MC,Chang'ombe,UNUBINI,Government,-6.8472263,39.2654093
1181,DAR ES SALAAM,Temeke MC,Toangoma,UPENDO,Government,-6.9439521,39.2812123
1182,DAR ES SALAAM,Temeke MC,Yombo vituka,UWANJA WA NDEGE,Government,-6.87636771,39.22202973
1183,DAR ES SALAAM,Temeke MC,Sandali,VETERINARY,Government,-6.8552331,39.2449641
1184,DAR ES SALAAM,Temeke MC,Miburani,WAILES,Government,-6.8585462,39.2691331
1185,DAR ES SALAAM,Temeke MC,Miburani,YEMENI,Non-Government,-6.8477885,39.2711144
1186,DAR ES SALAAM,Temeke MC,Makangarawe,YOMBO DOVYA,Government,-6.8745361,39.2506911
1187,DAR ES SALAAM,Temeke MC,Yombo vituka,YOMBO VITUKA,Government,-6.8741431,39.2293921
1188,DAR ES SALAAM,Temeke MC,Tandika,YUSUPH R. MAKAMBA,Government,-6.862798,39.255583
1189,DAR ES SALAAM,Ubungo MC,Mburahati,ALI HASSAN MWINYI ISLAMIC,Non-Government,-6.8168741,39.2473321
1190,DAR ES SALAAM,Ubungo MC,Msigani,ALLIENCE,Non-Government,-6.787898,39.107644
1191,DAR ES SALAAM,Ubungo MC,Mabibo,AMANI,Government,-6.813165,39.234805
1192,DAR ES SALAAM,Ubungo MC,Saranga,ANAZAK,Non-Government,-6.7817223,39.1344856
1193,DAR ES SALAAM,Ubungo MC,Saranga,ANNINYINDUMI,Non-Government,-6.779335,39.17129
1194,DAR ES SALAAM,Ubungo MC,Goba,ARISE,Non-Government,-6.7113521,39.1576231
1195,DAR ES SALAAM,Ubungo MC,Ubungo,ATLAS,Non-Government,-6.8023554,39.2084987
1196,DAR ES SALAAM,Ubungo MC,Mbezi,AUREKE,Non-Government,-6.7615811,39.1131321
1197,DAR ES SALAAM,Ubungo MC,Mburahati,BARAFU,Government,-6.8133983,39.2428966
1198,DAR ES SALAAM,Ubungo MC,Mbezi,BARNEY,Non-Government,-6.7403636,39.1077875
1199,DAR ES SALAAM,Ubungo MC,Msigani,BELU,Non-Government,-6.807082,39.130542
1200,DAR ES SALAAM,Ubungo MC,Goba,BETA,Non-Government,-6.6938223,39.1443351
1201,DAR ES SALAAM,Ubungo MC,Kwembe,BETHEL - MSAKUZI,Non-Government,-6.7624883,39.06755
1202,DAR ES SALAAM,Ubungo MC,Makuburi,BETHEL MISSION,Non-Government,-6.8261424,39.2019874
1203,DAR ES SALAAM,Ubungo MC,Saranga,BROOKSIDE,Non-Government,-6.7901332,39.1478213
1204,DAR ES SALAAM,Ubungo MC,Mburahati,BRYCESON,Government,-6.8105351,39.2818832
1205,DAR ES SALAAM,Ubungo MC,Mbezi,CALVARY MONTESSORY,Non-Government,-6.788693,39.090818
1206,DAR ES SALAAM,Ubungo MC,Goba,CASTLE HILLS,Non-Government,-6.7400142,39.1439865
1207,DAR ES SALAAM,Ubungo MC,Sinza,DAR TRUST FUND,Non-Government,-6.784912,39.222374
1208,DAR ES SALAAM,Ubungo MC,Mbezi,DARBRIDGE,Non-Government,-6.7348773,39.1015362
1209,DAR ES SALAAM,Ubungo MC,Saranga,DARE INTEGRA,Non-Government,-6.8011215,39.1450485
1210,DAR ES SALAAM,Ubungo MC,Goba,DEVINE,Non-Government,-6.7250087,39.1633086
1211,DAR ES SALAAM,Ubungo MC,Makurumla,DR. OMARI,Government,-6.8060577,39.2495062
1212,DAR ES SALAAM,Ubungo MC,Kimara,EBONITE,Non-Government,-6.7888828,39.1805839
1213,DAR ES SALAAM,Ubungo MC,Mbezi,EKARUWA,Non-Government,-6.7460611,39.0720731
1214,DAR ES SALAAM,Ubungo MC,Goba,ELITE SPRINTS,Non-Government,-6.7250117,39.1584667
1215,DAR ES SALAAM,Ubungo MC,Goba,ELIZABETH,Non-Government,-6.7236111,39.1875001
1216,DAR ES SALAAM,Ubungo MC,Kibamba,EMI,Non-Government,-6.78034,39.05251
1217,DAR ES SALAAM,Ubungo MC,Makuburi,EMMANUEL,Non-Government,-6.8013724,39.2002346
1218,DAR ES SALAAM,Ubungo MC,Saranga,FILBERT BAYI,Non-Government,-6.7497529,39.278263
1219,DAR ES SALAAM,Ubungo MC,Mbezi,FOUNTAIN OF JOY,Non-Government,-6.7879915,39.1071329
1220,DAR ES SALAAM,Ubungo MC,Mbezi,FRANCL,Non-Government,-6.7554854,39.1315253
1221,DAR ES SALAAM,Ubungo MC,Goba,FUTURE STARS,Non-Government,-6.7284161,39.1397062
1222,DAR ES SALAAM,Ubungo MC,Msigani,GIFT SKILLFUL,Non-Government,-6.7999353,39.1356689
1223,DAR ES SALAAM,Ubungo MC,Goba,GOBA,Government,-6.7401184,39.146726
1224,DAR ES SALAAM,Ubungo MC,Mbezi,GODIANA,Non-Government,-6.7783982,39.0627716
1225,DAR ES SALAAM,Ubungo MC,Kimara,GOLANI,Government,-6.8107944,39.1600046
1226,DAR ES SALAAM,Ubungo MC,Kwembe,GOLDENLIGHT,Non-Government,-6.771247,39.074005
1227,DAR ES SALAAM,Ubungo MC,Sinza,GRACE,Non-Government,-6.78699157,39.2271978
1228,DAR ES SALAAM,Ubungo MC,Mbezi,GREENBELT,Non-Government,-6.787378,39.105689
1229,DAR ES SALAAM,Ubungo MC,Goba,HEKIMA WALDORF,Non-Government,-6.73450833,39.1740566
1230,DAR ES SALAAM,Ubungo MC,Mbezi,HELLENS,Non-Government,-6.7159976,39.0613588
1231,DAR ES SALAAM,Ubungo MC,Saranga,HIGHRIDGE,Non-Government,-6.7863305,39.1283626
1232,DAR ES SALAAM,Ubungo MC,Kibamba,HONDOGO,Government,-6.7723839,39.0458384
1233,DAR ES SALAAM,Ubungo MC,Mbezi,IDRIS A. WAKIL,Government,-6.7511316,39.0852362
1234,DAR ES SALAAM,Ubungo MC,Saranga,IMMACULATE,Non-Government,-6.7773729,39.1334587
1235,DAR ES SALAAM,Ubungo MC,Ubungo,IMMACULATE HEART OF MARY,Non-Government,-6.783107,39.196763
1236,DAR ES SALAAM,Ubungo MC,Kimara,JERUSALEMU,Non-Government,-6.7891183,39.1783266
1237,DAR ES SALAAM,Ubungo MC,Mabibo,JESHINI,Government,-6.81498,39.22793
1238,DAR ES SALAAM,Ubungo MC,Saranga,JITIHADA,Government,-6.778485,39.14932
1239,DAR ES SALAAM,Ubungo MC,Kwembe,JOY CARE,Non-Government,-6.8209704,39.0989058
1240,DAR ES SALAAM,Ubungo MC,Makurumla,KARUME,Government,-6.8060783,39.2492137
1241,DAR ES SALAAM,Ubungo MC,Mabibo,KAWAWA,Government,-6.8140116,39.235521
1242,DAR ES SALAAM,Ubungo MC,Kibamba,KIBAMBA,Government,-6.7852083,39.0459016
1243,DAR ES SALAAM,Ubungo MC,Makuburi,KIBANGU,Government,-6.8006194,39.2050361
1244,DAR ES SALAAM,Ubungo MC,Makuburi,KIBANGU ENG.,Non-Government,-6.8045648,39.1997195
1245,DAR ES SALAAM,Ubungo MC,Mbezi,KIBESA,Government,-6.6963217,39.0696217
1246,DAR ES SALAAM,Ubungo MC,Kibamba,KIBWEGERE,Government,-6.7664353,39.0318317
1247,DAR ES SALAAM,Ubungo MC,Manzese,KILIMANI,Government,-6.7908698,39.2273652
1248,DAR ES SALAAM,Ubungo MC,Kimara,KILUNGULE,Government,-6.8050088,39.1684239
1249,DAR ES SALAAM,Ubungo MC,Kibamba,KILUVYA,Government,-6.7873366,39.0192393
1250,DAR ES SALAAM,Ubungo MC,Saranga,KIMARA 'B',Government,-6.7736985,39.1507202
1251,DAR ES SALAAM,Ubungo MC,Kimara,KIMARA BARUTI,Government,-6.7902433,39.1785878
1252,DAR ES SALAAM,Ubungo MC,Kwembe,KING'AZI,Government,-6.817968,39.100557
1253,DAR ES SALAAM,Ubungo MC,Saranga,KING'ONGO,Government,-6.7643791,39.1514602
1254,DAR ES SALAAM,Ubungo MC,Goba,KINGS,Non-Government,-6.745681,39.1400574
1255,DAR ES SALAAM,Ubungo MC,Kwembe,KISOPWA,Government,-6.9273141,39.0415143
1256,DAR ES SALAAM,Ubungo MC,Goba,KULANGWA,Government,-6.7159435,39.1540346
1257,DAR ES SALAAM,Ubungo MC,Goba,KUNGURU,Government,-6.7355266,39.1833866
1258,DAR ES SALAAM,Ubungo MC,Kwembe,KWEMBE,Government,-6.8197657,39.0984302
1259,DAR ES SALAAM,Ubungo MC,Goba,LEGEND,Non-Government,-6.70220221,39.1903573
1260,DAR ES SALAAM,Ubungo MC,Kwembe,LITTLE WOOD,Non-Government,-6.771695,39.067078
1261,DAR ES SALAAM,Ubungo MC,Sinza,LUQMAN,Non-Government,-6.7830333,39.2217423
1262,DAR ES SALAAM,Ubungo MC,Makuburi,MABIBO,Government,-6.8107651,39.2136792
1263,DAR ES SALAAM,Ubungo MC,Goba,MACRINE,Non-Government,-6.7195236,39.1161954
1264,DAR ES SALAAM,Ubungo MC,Mbezi,MAKABE,Government,-6.7593283,39.1052916
1265,DAR ES SALAAM,Ubungo MC,Mbezi,MAKABE HILLTOP,Non-Government,-6.7477765,39.0653823
1266,DAR ES SALAAM,Ubungo MC,Mbezi,MAKAMBA,Government,-6.7529164,39.0889382
1267,DAR ES SALAAM,Ubungo MC,Makuburi,MAKOKA,Government,-6.80255571,39.13229471
1268,DAR ES SALAAM,Ubungo MC,Makuburi,MAKUBURI,Government,-6.8108751,39.2136592
1269,DAR ES SALAAM,Ubungo MC,Makuburi,MAKUBURI JESHINI,Government,-6.8165864,39.2080973
1270,DAR ES SALAAM,Ubungo MC,Ubungo,MALAIKA,Non-Government,-6.7946033,39.1956967
1271,DAR ES SALAAM,Ubungo MC,Msigani,MALAMBA MAWILI,Government,-6.810094,39.113619
1272,DAR ES SALAAM,Ubungo MC,Manzese,MANZESE,Government,-6.7967356,39.2284701
1273,DAR ES SALAAM,Ubungo MC,Kwembe,MARIA MISSION,Non-Government,-6.7981783,39.0666033
1274,DAR ES SALAAM,Ubungo MC,Makuburi,MATSAPA,Non-Government,-6.8016283,39.1952167
1275,DAR ES SALAAM,Ubungo MC,Saranga,MAVURUNZA,Government,-6.7800743,39.1730324
1276,DAR ES SALAAM,Ubungo MC,Kwembe,MAWO,Non-Government,-6.81036,39.10926
1277,DAR ES SALAAM,Ubungo MC,Mbezi,MBEZI,Government,-6.7828885,39.1172894
1278,DAR ES SALAAM,Ubungo MC,Mbezi,MBEZI LUIS,Government,-6.7522287,39.1245228
1279,DAR ES SALAAM,Ubungo MC,Mburahati,MBURAHATI,Government,-6.8135253,39.2818834
1280,DAR ES SALAAM,Ubungo MC,Makurumla,MIANZINI,Government,-6.8061213,39.2430204
1281,DAR ES SALAAM,Ubungo MC,Kimara,MILENIA YA TATU,Government,-6.8087142,39.1564811
1282,DAR ES SALAAM,Ubungo MC,Ubungo,MLIMANI,Government,-6.7785727,39.2182268
1283,DAR ES SALAAM,Ubungo MC,Mbezi,MONT,Non-Government,-6.718194,39.114073
1284,DAR ES SALAAM,Ubungo MC,Goba,MORE LIGHT,Non-Government,-6.7503119,39.1472716
1285,DAR ES SALAAM,Ubungo MC,Saranga,MOTHER EMILIE DORMAN,Non-Government,-6.7605148,39.1324869
1286,DAR ES SALAAM,Ubungo MC,Saranga,MOTHER MARY,Non-Government,-6.794689,39.147091
1287,DAR ES SALAAM,Ubungo MC,Kibamba,MOUNT CALVARY,Non-Government,-6.7800732,39.0126804
1288,DAR ES SALAAM,Ubungo MC,Msigani,MOUNT MORIAH,Non-Government,-6.788306,39.130466
1289,DAR ES SALAAM,Ubungo MC,Saranga,MOUNTAIN HILL,Non-Government,-6.7684225,39.1734664
1290,DAR ES SALAAM,Ubungo MC,Mabibo,MPAKANI,Government,-6.80422,39.22938
1291,DAR ES SALAAM,Ubungo MC,Kwembe,MSAKUZI,Government,-6.7672223,39.072085
1292,DAR ES SALAAM,Ubungo MC,Ubungo,MSEWE,Government,-6.802353,39.279556
1293,DAR ES SALAAM,Ubungo MC,Mbezi,MSHIKAMANO,Government,-6.7768769,39.09661404
1294,DAR ES SALAAM,Ubungo MC,Msigani,MSIGANI,Government,-6.7920972,39.1179429
1295,DAR ES SALAAM,Ubungo MC,Mbezi,MSUMI,Government,-6.7112721,39.106675
1296,DAR ES SALAAM,Ubungo MC,Saranga,MT. KILIMANJARO,Non-Government,-6.7818662,39.1641813
1297,DAR ES SALAAM,Ubungo MC,Msigani,MT. THERESIA,Non-Government,-6.78875,39.108154
1298,DAR ES SALAAM,Ubungo MC,Sinza,MUGABE,Government,-6.7887395,39.2202475
1299,DAR ES SALAAM,Ubungo MC,Mburahati,MUUNGANO,Government,-6.8144459,39.2425836
1300,DAR ES SALAAM,Ubungo MC,Goba,MUUNGANO ENG. MED.,Non-Government,-6.7403001,39.1435492
1301,DAR ES SALAAM,Ubungo MC,Saranga,NABA,Non-Government,-6.8186433,39.1293899
1302,DAR ES SALAAM,Ubungo MC,Mbezi,NAWINA,Non-Government,-6.7753536,39.0508843
1303,DAR ES SALAAM,Ubungo MC,Mbezi,NICOSTA,Non-Government,-6.7551281,39.0998821
1304,DAR ES SALAAM,Ubungo MC,Kimara,PARADIMS,Non-Government,-6.8159752,39.1568545
1305,DAR ES SALAAM,Ubungo MC,Ubungo,PEACE AND LOVE,Non-Government,-6.7927219,39.2081567
1306,DAR ES SALAAM,Ubungo MC,Goba,PRECIOUS,Non-Government,-6.7496841,39.1873623
1307,DAR ES SALAAM,Ubungo MC,Kwembe,RAINBOW,Non-Government,-6.8318566,39.1136633
1308,DAR ES SALAAM,Ubungo MC,Sinza,REGINALD MENGI,Government,-6.7886194,39.2256972
1309,DAR ES SALAAM,Ubungo MC,Ubungo,ROSAMI,Non-Government,-6.7946031,39.1923785
1310,DAR ES SALAAM,Ubungo MC,Mbezi,SAFI,Non-Government,-6.7437596,39.1049817
1311,DAR ES SALAAM,Ubungo MC,Mabibo,SAHARA,Non-Government,-6.80789,39.2179061
1312,DAR ES SALAAM,Ubungo MC,Kibamba,SAKANA,Non-Government,-6.7875251,39.051998
1313,DAR ES SALAAM,Ubungo MC,Saranga,SARANGA,Government,-6.8029368,39.1694852
1314,DAR ES SALAAM,Ubungo MC,Kwembe,SEASON,Non-Government,-6.7714736,39.0497467
1315,DAR ES SALAAM,Ubungo MC,Sinza,SINZA,Government,-6.7893055,39.2271087
1316,DAR ES SALAAM,Ubungo MC,Msigani,ST. ANNA MARIE,Non-Government,-6.782597,39.197869
1317,DAR ES SALAAM,Ubungo MC,Mbezi,ST. ANNS,Non-Government,-6.7758833,39.1088066
1318,DAR ES SALAAM,Ubungo MC,Saranga,ST. CLARET,Non-Government,-6.7738132,39.1578174
1319,DAR ES SALAAM,Ubungo MC,Kimara,ST. MAGRETH,Non-Government,-6.8066195,39.1714008
1320,DAR ES SALAAM,Ubungo MC,Kwembe,ST.FELISTA,Non-Government,-6.7991399,39.0863183
1321,DAR ES SALAAM,Ubungo MC,Mbezi,STARS,Non-Government,-6.7730405,39.1041125
1322,DAR ES SALAAM,Ubungo MC,Goba,TEGETA 'A',Government,-6.7471938,39.1324164
1323,DAR ES SALAAM,Ubungo MC,Msigani,TEMBONI,Government,-6.8074956,39.1314102
1324,DAR ES SALAAM,Ubungo MC,Kimara,TOP LAYER,Non-Government,-6.8126924,39.1698401
1325,DAR ES SALAAM,Ubungo MC,Mbezi,TOPSTAR,Non-Government,-6.7871917,39.100725
1326,DAR ES SALAAM,Ubungo MC,Mbezi,TOTERA,Non-Government,-6.7714308,39.0965142
1327,DAR ES SALAAM,Ubungo MC,Makuburi,UBUNGO KISIWANI,Government,-6.8002267,39.2053017
1328,DAR ES SALAAM,Ubungo MC,Ubungo,UBUNGO NH,Government,-6.790513,39.217631
1329,DAR ES SALAAM,Ubungo MC,Ubungo,UBUNGO PLAZA,Government,-6.7927841,39.2149409
1330,DAR ES SALAAM,Ubungo MC,Manzese,UKOMBOZI,Government,-6.7963614,39.2284336
1331,DAR ES SALAAM,Ubungo MC,Mabibo,UMOJA,Government,-6.815025,39.228047
1332,DAR ES SALAAM,Ubungo MC,Mbezi,UPENDO,Government,-6.7824699,39.117947
1333,DAR ES SALAAM,Ubungo MC,Ubungo,URAFIKI,Government,-6.791375,39.2162831
1334,DAR ES SALAAM,Ubungo MC,Manzese,UZURI,Government,-6.7910134,39.2297926
1335,DAR ES SALAAM,Ubungo MC,Kimara,VERITAS,Non-Government,-6.7972755,39.1662344
